"stop_id","stop_name","stop_calle","stop_numero","stop_entre","stop_lat","stop_lon"
4,"C0004","Julio de Vedia",3837,"Jose Maria La Hora y Macacha Guemes",-31.36509,-64.13816
5,"C0005","Julio de Vedia",3741,"Perez de Denis y Jose Agustin Donado",-31.36653,-64.13818
6,"C0006","Julio de Vedia",3631,"Eustaquio Diaz Velez y Soriano de Areval",-31.36797,-64.13816
7,"C0007","Arevalo",2552,"Heroes de Vilcapugio y Heroinas de Mayou",-31.36847,-64.1359
8,"C0008","Arevalo",2682,"Heroinas de Ayouma y Chachapoyas",-31.36848,-64.13358
9,"C0009","Chachapoyas",3550,"Bv Chorroarin doble mano",-31.36906,-64.13306
10,"C0010","Chachapoyas",3401,"27 de Febrero y Fernando Abramo",-31.37101,-64.13308
11,"C0011","Chachapoyas",3067,"Julian Laguna y 3 de Junio",-31.37247,-64.13308
12,"C0012","Chachapoyas",3111,"Jose Mellian y Arredondo",-31.37387,-64.1331
13,"C0013","Chachapoyas",3000,"Rauch y Balbastro",-31.37532,-64.13313
14,"C0014","Rauch",2792,"Maestro Castro y Pje S/Nombre",-31.37572,-64.13165
15,"C0015","Rauch",2894,"Castro y Calle sin Nombre",-31.3757,-64.1302
16,"C0016","Mesa y Castro",2897,"Capdevila y Rauch",-31.37632,-64.1297
17,"C0017","Montemayor",2767,"Capdevila y Rafael de Palencia",-31.37783,-64.1318
18,"C0018","Montemayor",2611,"Rafael de Palencia y Vilchez y Montoya",-31.37925,-64.13178
19,"C0019","Montemayor",2365,"Tadeo Davila y Jose de Medeiros",-31.38218,-64.1318
20,"C0020","Montemayor",2225,"Medeiros y Archondo",-31.38309,-64.13182
21,"C0021","Montemayor",2015,"Oca¤a y Isasmendi",-31.38508,-64.1318
22,"C0022","Isasmendi",2900,"Alsina y Altolaguirre",-31.38543,-64.13383
23,"C0023","Altolaguirre",1718,"Gil de Taboada y Ramon de Carassa",-31.38805,-64.1341
24,"C0024","Malvinas",2613,"Edison y Wilson",-31.38936,-64.13602
26,"C0026","Malvinas",2155,"Jose de Quevedo y Herman Huberman",-31.39104,-64.14334
29,"C0029","Malvinas",1445,"Santiso y Moscoso y Juan Tissera",-31.39325,-64.15202
33,"C0033","Polonia",1216,"Cochabamba y Charcas",-31.39878,-64.15663
34,"C0034","Polonia",1041,"Urtubey y Garay",-31.40063,-64.15581
36,"C0036","Armenia",2169,"Garibaldi y Eufrasio Loza",-31.40337,-64.15718
37,"C0037","Libertad",2069,"Eufrasio Loza y Manuel Vergara",-31.40555,-64.15754
40,"C0040","Viamonte",630,"Libertad y Oncativo",-31.4089,-64.16646
44,"C0044","Sarmiento",331,"Pje Scabuzzo y Maipu",-31.41146,-64.17708
47,"C0047","Gral. Paz",331,"La Rioja y Santa Rosa",-31.41145,-64.18515
49,"C0049","Velez Sarsfield",360,"Caseros y Duarte Quiros",-31.41732,-64.18757
50,"C0050","Velez Sarsfield",660,"San Luis y Laprida",-31.42289,-64.18997
51,"C0051","Achaval Rodriguez",333,"Belgrano y M.T. de Alvear",-31.4241,-64.1924
53,"C0053","M.T. de Alvear",1070,"Angelo de Peredo y Domingo Funes",-31.4265,-64.19467
54,"C0054","Julio Roca",418,"Brasil y Simon Bolivar",-31.42723,-64.19542
56,"C0056","Julio Roca",672,"Corro y Artigas",-31.42878,-64.20066
57,"C0057","Julio Roca",886,"Clemente Sarraga y Paso de los Andes",-31.4286,-64.20286
58,"C0058","Julio Roca",1091,"Achaval y Misiones",-31.42779,-64.207
59,"C0059","Fuerza Aerea",1300,"Rio Negro y Rotonda del Ala",-31.429,-64.21121
60,"C0060","Fuerza Aerea",1871,"Sol de Mayo y Sgto. Romero",-31.43038,-64.21456
63,"C0063","Fuerza Aerea",2544,"Olegario Correa y Jose de Echeverria",-31.43083,-64.22171
64,"C0064","Fuerza Aerea",2884,"Espora y Leon Pinelo",-31.43125,-64.22698
70,"C0070","Aviador Abel",1887,"Fuerza Aerea y Aviador Zanni",-31.43226,-64.24571
71,"C0071","Aviador Abel",1758,"Albarracin y Zuñiga",-31.42981,-64.24571
74,"C0074","Aviador Kingsley",1745,"Zuñiga y Albarracin",-31.42935,-64.24691
75,"C0075","Aviador Kingsley",1798,"Albarracin y Camilo Isleño",-31.43033,-64.24691
77,"C0077","Fuerza Aerea",4300,"Aviador Richardson y Aviador Camilotti",-31.43257,-64.2443
79,"C0079","Fuerza Aerea",3755,"Graham Bell y Varela Ortiz",-31.43216,-64.23805
81,"C0081","Fuerza Aerea",3100,"Peteroa y Fuerza Aerea",-31.43166,-64.23062
82,"C0082","Fuerza Aerea",2859,"Leon Pinelo y Espora",-31.43143,-64.22722
83,"C0083","Fuerza Aerea",2683,"Lafore y Padre Lozano",-31.43122,-64.22428
84,"C0084","Fuerza Aerea",2433,"Olegario Correa y Vieytes",-31.43093,-64.22036
85,"C0085","Fuerza Aerea",2045,"Sosneado y Tronador",-31.43075,-64.21739
88,"C0088","Julio Roca",1260,"La Pampa y Luis Agote",-31.42842,-64.20924
89,"C0089","Julio Roca",961,"Achaval y Paso de los Andes",-31.42813,-64.20598
90,"C0090","Julio Roca",745,"Canalejas y Elpidio Gonzalez",-31.42871,-64.20221
92,"C0092","Julio Roca",445,"Rodolfo Reyna y Simon Bolivar",-31.42797,-64.1966
93,"C0093","Pueyrredon",395,"M.T de Alvear y Belgrano",-31.42587,-64.19375
94,"C0094","Pueyrredon",73,"Obispo Trejo y Independencia",-31.42709,-64.18975
95,"C0095","Estrada",160,"Buenos Aires y Ituzaingo",-31.42796,-64.18663
100,"C0100","Maipu",164,"25 de Mayo y Olmos",-31.41558,-64.17945
103,"C0103","Esquiu",247,"24 de Setiembre y Lima",-31.41465,-64.17091
104,"C0104","Catamarca",985,"Esquiu y Felix Frias",-31.41274,-64.17063
106,"C0106","Jacinto Rios",554,"Sarmiento y Oncativo",-31.41028,-64.16721
107,"C0107","Oncativo",1551,"Roma y Gral. Deheza",-31.40884,-64.16484
110,"C0110","Rincon",2084,"Pje Manuel Vergara y Eufrasio Loza",-31.40484,-64.1583
111,"C0111","Gavilan",827,"Frente al CPC",-31.40396,-64.15505
112,"C0112","Garibaldi",962,"Armenia y Garay",-31.40283,-64.15741
113,"C0113","Garibaldi",1336,"Cochabamba y Padre Luis Monti",-31.39872,-64.15893
116,"C0116","Malvinas",1253,"Juan XXIII y Carlos III",-31.39442,-64.15544
120,"C0120","Malvinas",2189,"Huberman y Jose de Quevedio",-31.39103,-64.14296
123,"C0123","Malvinas",2765,"Wilson y Edison",-31.38932,-64.1357
125,"C0125","Alsina",2032,"Isasmendi y Villacorta y Oca¤a",-31.38546,-64.13336
126,"C0126","Chachapoyas",2199,"Villacorta y Oca¤a y Tomas de Archondo",-31.38387,-64.13258
127,"C0127","Chachapoyas",2394,"Medeiros y Tadeo Davila",-31.38193,-64.13256
128,"C0128","Chachapoyas",2594,"Leon y Pizarro y Vilchez y Montoya",-31.37956,-64.13253
129,"C0129","Montemayor",2682,"Vilchez y Montoya y  Rafael de Palencia",-31.37842,-64.13204
130,"C0130","Montemayor",2800,"Palencia y Capdevila",-31.37754,-64.13181
131,"C0131","Capdevila",2885,"Jose Arriola y Castro",-31.37698,-64.13014
132,"C0132","Castro",3000,"Capdevila y Rauch",-31.37627,-64.12967
133,"C0133","Rauch",2800,"Castro y Jose Arriola ",-31.37561,-64.13126
134,"C0134","Rauch",2717,"Jose Arriola y Chachapoyas ",-31.37562,-64.133
135,"C0135","Chachapoyas",3082,"Rauch y Mellian",-31.37471,-64.13309
136,"C0136","Chachapoyas",3280,"3 de Junio y Julian Laguna",-31.37277,-64.13307
137,"C0137","Chachapoyas",3442,"Fernando Abramo y 27 de Febrero",-31.37082,-64.13305
142,"C0142","La Hora",2426,"Julio de Vedia y Casilla",-31.36467,-64.13774
146,"C0146","Villegas",2300,"Celestino Vidal Frente a Plaza",-31.36898,-64.1398
147,"C0147","Villegas",2163,"Manuel de Escalada y Liborio Muzlera",-31.36897,-64.14204
148,"C0148","Diaz Colodrero",3575,"Villegas y Niceto Vega",-31.36895,-64.14435
149,"C0149","Diaz Colodrero",3400,"Niceto Vega y Abramo",-31.37072,-64.14467
150,"C0150","Diaz Colodrero",3257,"Julian Laguna y Joaquin Nazar",-31.37265,-64.14467
151,"C0151","Diaz Colodrero",3105,"Arredondo y Meillan",-31.37417,-64.14468
152,"C0152","Diaz Colodrero",2900,"Rauch y Vernet",-31.37629,-64.14475
153,"C0153","Diaz Colodrero",2700,"Mariano Usandivaras y Ramon Lista",-31.37824,-64.14472
154,"C0154","Capdevila",2069,"Diaz Colodrero y Maria Postorino",-31.37947,-64.14385
155,"C0155","Capdevila",2223,"Escalada y Celestino Vidal",-31.37897,-64.14117
156,"C0156","Celestino Vidal",2614,"Capdevila y Andres de Brun",-31.3792,-64.13993
157,"C0157","Ledesma",2500,"Brun y Leon y Pizarro",-31.38089,-64.1406
158,"C0158","Leon y Pizarro",2281,"Juan Liendo y Oscariz y Beaumont",-31.38118,-64.14166
159,"C0159","Dos Barrios",2143,"Leon y Pizarro y Sin Nombre",-31.38193,-64.1431
160,"C0160","Diaz Colodrero",2370,"Dos Barrios y Chinchilla",-31.3822,-64.14479
161,"C0161","Diaz Colodrero",2204,"Mallorca y Cuzco",-31.38411,-64.145
162,"C0162","Victor Manuel III",2100,"Astorga y Tinta",-31.3854,-64.14534
163,"C0163","Victor Manuel III",1983,"Quilambe y Victoria",-31.38679,-64.14534
164,"C0164","Ocampis",2200,"Victor Manuel III y Chilavert",-31.38748,-64.1464
165,"C0165","Chilavert",1788,"Tridentina y Garaglio",-31.38841,-64.14661
166,"C0166","Acapianta",1847,"Chilavert y Prosanto",-31.38995,-64.14717
167,"C0167","Puerto Rico",2426,"Roberto Levillier y Carlos III",-31.38889,-64.14945
168,"C0168","Juan XXIII",1811,"Puerto Rico y Tarija",-31.38884,-64.15122
169,"C0169","Juan XXIII",1675,"Paisandu y Puerto de Palos",-31.3897,-64.15259
170,"C0170","Juan XXIII",1500,"Puerto de Palos y Santiso y Moscoso",-31.39131,-64.1534
171,"C0171","Santiso y Moscoso",2118,"Felipe II y Punta del Sauce",-31.39081,-64.15484
172,"C0172","Punta del Sauce",1354,"Tisera y Abad e Iliana",-31.39172,-64.15603
173,"C0173","Punta del Sauce",1148,"Mauricio Yadarola antes de la curva",-31.39398,-64.15801
175,"C0175","Bulnes",2154,"Garibaldi y Eufrasio Loza",-31.39639,-64.16074
176,"C0176","Bulnes",1876,"Mejico y Janer",-31.39757,-64.16445
177,"C0177","Bulnes",1756,"Janer y Pje Nores",-31.39809,-64.16609
178,"C0178","Viamonte",1445,"Suipacha y Cochabamba",-31.40025,-64.16966
179,"C0179","Viamonte",1207,"Cochabamba y Charcas",-31.40254,-64.16882
180,"C0180","Viamonte",1050,"Buchardo y Juan de Garay",-31.40439,-64.16816
181,"C0181","Viamonte",769,"Rincon y Libertad",-31.40721,-64.16709
187,"C0187","Sarmiento",25,"Cortada de Israel y San Martin",-31.41031,-64.18082
191,"C0191","Velez Sarsfield",214,"Caseros y Duarte Quiros",-31.41773,-64.18772
194,"C0194","Hipolito Irigoyen",386,"Buenos Aires y Derqui",-31.42445,-64.18679
196,"C0196","Hipolito Irigoyen",660,"Ambrosio Olmos y Crisol",-31.42971,-64.18456
197,"C0197","Hipolito Irigoyen",750,"Chile y Bolivia",-31.43107,-64.18439
198,"C0198","Los Nogales",,"Valparaiso y Barros",-31.43361,-64.18572
202,"C0202","Maestro Lopez",,"Medina Allende y Cruz Roja",-31.43975,-64.19267
203,"C0203","Maestro Lopez",,"Medina Allende y Cruz Roja",-31.44201,-64.19375
205,"C0205","Cruz Roja Argentina",,"Carlos Octavio Bunge y Obispo Echenique Altamira ",-31.44293,-64.18985
206,"C0206","Cruz Roja Argentina",,"Esquina con Valparaiso",-31.44265,-64.18759
207,"C0207","Cruz Roja Argentina",,"Esquina con Valparaiso",-31.44251,-64.18708
208,"C0208","Cruz Roja Argentina",,"Carlos Becu y Obispo Echenique altamira",-31.44273,-64.18914
209,"C0209","Cruz Roja Argentina",,"Esquina Maestro Lopez",-31.44312,-64.19257
210,"C0210","Maestro Lopez",,"Frente UTN",-31.44238,-64.19396
211,"C0211","Maestro Lopez",,"Frente Hellen Keller",-31.4401,-64.19277
212,"C0212","Haya de la Torre",,"Esquina con Medina Allende",-31.43813,-64.19243
219,"C0219","27 de Abril",120,"Obispo Trejo y Velez Sarsfield",-31.41667,-64.18563
220,"C0220","Tucuman",56,"Dean Funes y 9 de Julio",-31.41432,-64.18788
228,"C0228","Pringles",650,"Oncativo y Libertad",-31.40944,-64.16882
234,"C0234","Bulnes",1780,"Pje. Nores y Janer",-31.39826,-64.16632
236,"C0236","Bulnes",2192,"Patria y Garibaldi",-31.39636,-64.16043
238,"C0238","Felipe II",1297,"Mauricio Yadarola y Abad e Illana",-31.393,-64.15601
239,"C0239","Felipe II",1438,"Tissera y Moscoso",-31.39149,-64.1547
240,"C0240","Felipe II",1700,"Puerto de Palos y Paysandu",-31.3896,-64.15301
241,"C0241","Tarija",2286,"Felipe II y Juan XXIII",-31.38873,-64.15179
242,"C0242","Tarija",2495,"Carlos III y Levillier",-31.38986,-64.15007
243,"C0243","Rancagua",1682,"Tarija y Calabalumba",-31.39102,-64.14826
244,"C0244","Calabalumba",1892,"Rancagua y Chilavert",-31.39054,-64.14678
245,"C0245","Chilavert",1784,"Caraglio y Tridentina",-31.38918,-64.14656
246,"C0246","Tridentina",1990,"Chilavert y Victor Manuel III",-31.38853,-64.14553
247,"C0247","Victor Manuel III",1893,"Tridentina y Ocampis",-31.38718,-64.14529
248,"C0248","Victor Manuel III",2092,"Quilambe y Tinta",-31.38567,-64.1453
249,"C0249","Diaz Colodrero",2244,"Astorga y Mallorca",-31.3839,-64.14485
250,"C0250","Diaz Colodrero",2370,"Mallorca y Dos Barrios",-31.38292,-64.14485
251,"C0251","Dos Barrios",2000,"Huberman y Diaz Gomez",-31.38202,-64.14337
252,"C0252","Leon y Pizarro",2296,"Oscariz Beaumont y Liendo",-31.38118,-64.14139
253,"C0253","Liendo",2600,"Leon y Pizarro y Brum",-31.37993,-64.1412
254,"C0254","Brum",2350,"Ledesma y Celestino Vidal",-31.37956,-64.14018
255,"C0255","Capdevila",2200,"Celestino Vidal y Escalada",-31.3789,-64.14114
256,"C0256","Capdevila",2045,"Postorino y Diaz Colodrero",-31.37943,-64.14407
257,"C0257","Diaz Colodrero",2798,"Capdevila y Usandivaras",-31.3781,-64.14467
258,"C0258","Diaz Colodrero",2884,"Usaqndivaras y Vernet",-31.37716,-64.14467
259,"C0259","Diaz Colodrero",3080,"Rauch Esquina de la Plaza",-31.37509,-64.14442
260,"C0260","Diaz Colodrero",3196,"Esquina de la Plaza y Arredondo",-31.37379,-64.14463
261,"C0261","Diaz Colodrero",3294,"Arredondo y Laguna",-31.37231389,-64.14461389
262,"C0262","Diaz Colodrero",3396,"Laguna y Rocamora",-31.37138,-64.14463
263,"C0263","Diaz Colodrero",3600,"Vega y Villegas",-31.36945,-64.14459
264,"C0264","Villegas",2144,"Pastorino y Muzlera",-31.369,-64.14241
265,"C0265","Villegas",2288,"Sanguinetto y Celestino Vidal",-31.369,-64.14017
266,"C0266","Villegas",2400,"Medina y Torres y Julio de Vedia",-31.369,-64.13851
267,"C0267","Julio de Vedia",3692,"Diaz Velez y Alarcon",-31.36769,-64.13816
269,"C0269","Lahora",2426,"Julio de Vedia y Casilla",-31.36488,-64.13815
273,"C0273","Julio de Vedia",3518,"Jose Chorroarin y Niceto Vega",-31.36961,-64.13824
274,"C0274","27 de Febrero",2300,"Julio de Vedia y Celestino Vidal",-31.37064,-64.13929
275,"C0275","Celestino Vidal",3324,"Tomas de Rocamora y Julian Laguna",-31.37162,-64.13986
276,"C0276","Celestino Vidal",3167,"Jose de Arredondo y Rio Pasaje",-31.37348,-64.13986
277,"C0277","Celestino Vidal",3015,"Vicente Balbastro y Federico Rauch",-31.37533,-64.1399
278,"C0278","Celestino Vidal",2895,"Luis Vernet y Felipe Pereyra Lucena",-31.37704,-64.1399
279,"C0279","Celestino Vidal",2717,"Juan Quesada y Capdevila",-31.37796,-64.1399
280,"C0280","Capdevila",2529,"Heroes de Vilcapujio y Wilson",-31.37817,-64.13675
281,"C0281","Altolaguirre",2750,"Fuenzalida Meneses y Rafael de Palencia",-31.37775,-64.13407
282,"C0282","Altolaguirre",2509,"Vilchez y Montoya y Leon y Pizarro",-31.38009,-64.13408
283,"C0283","Altolaguirre",2312,"Tadeo Davila y Jose de Medeiros",-31.38197,-64.13408
284,"C0284","Altolaguirre",2153,"Tomas de Archondo y Villacorta y Oca¤a",-31.38342,-64.1341
291,"C0291","Malvinas",1600,"Paysandu y Domingo Pronsato",-31.39247,-64.14951
294,"C0294","Malvinas",1050,"Punta del Sauce y Aragon",-31.39542,-64.15894
295,"C0295","Bulnes",2148,"Garibaldi y Patria",-31.3964,-64.16069
296,"C0296","Bulnes",1870,"Mejico y Janer",-31.39755,-64.16443
299,"C0299","Viamonte",1207,"Cochabamba y Charcas",-31.40182,-64.16903
300,"C0300","Viamonte",1050,"Buchardo y Juan de Garay",-31.40419,-64.16821
304,"C0304","Sarmiento",1124,"Pringles y David Luque",-31.41112,-64.16914
306,"C0306","Guzman",350,"Catamarca y Lima",-31.41359,-64.17542
307,"C0307","Guzman",250,"Lima y Olmos",-31.41493,-64.17583
308,"C0308","Peron",72,"Rosario de Santa Fe y San Jeronimo",-31.41921,-64.17594
311,"C0311","27 de Abril",370,"Belgrano y Ayacucho",-31.41579,-64.18902
312,"C0312","27 de Abril",772,"Corro y Artigas",-31.41421,-64.1945
313,"C0313","27 de Abril",984,"Calasanz y Mariano Moreno",-31.41342,-64.19711
316,"C0316","Paso de los Andes",820,"Laprida y Achaval Rodriguez",-31.42096,-64.2023
317,"C0317","Pueyrredon",1154,"Paso de los Andes y Paraguay",-31.42283,-64.20346
318,"C0318","Pueyrredon",1382,"Misiones y La Pampa",-31.42201,-64.20603
320,"C0320","Sol de Mayo",1132,"Angelo de Peredo y Domingo Funes",-31.42188,-64.21179
324,"C0324","Fuerza Aerea",2200,"Haedo y Juan Vieytes",-31.43065,-64.2182
326,"C0326","Fuerza Aerea",2745,"Blamey Lafore y Almte. Brown",-31.43109,-64.22443
328,"C0328","Fuerza Aerea",3078,"Franz Schubert y Maestro Vidal",-31.43145,-64.22958
329,"C0329","Fuerza Aerea",3468,"Aaron Castellanos y Fleming",-31.43176,-64.23412
330,"C0330","Fuerza Aerea",3774,"Diaz de la Fuente y Graham Bell",-31.43197,-64.23745
331,"C0331","Fuerza Aerea",4024,"Marie Courie y Fournier",-31.43215,-64.24054
333,"C0333","Kingsley",2100,"Fuerza Aerea y Uritorco",-31.433808,-64.247009
334,"C0334","Kingsley",2300,"Manuel Bustos y Gabriela Mistral",-31.43565,-64.246969
335,"C0335","Kingsley",2460,"Lagunilla y Reconquista",-31.437008,-64.24695
336,"C0336","Kingsley",2636,"Esmeralda y Antartida",-31.438834,-64.246963
337,"C0337","Kingsley",2800,"Antartida y Alianza",-31.440791,-64.246994
338,"C0338","Petirossi",3054,"Los Pinos y Riga",-31.44333,-64.2481
339,"C0339","Petirossi",3236,"Tirana y Bucarest",-31.44571,-64.24817
340,"C0340","Petirossi",3418,"Amsterdam y Estocolmo",-31.44757,-64.24817
341,"C0341","Estocolmo",4785,"Estocolmo y Varsovia",-31.44858,-64.24917
342,"C0342","Estocolmo",4785,"Estocolmo y Varsovia",-31.44858,-64.24917
343,"C0343","Petirossi",3400,"Estocolmo y Amsterdam",-31.44771,-64.24811
344,"C0344","Petirossi",3246,"Bucarest y Tirana",-31.44615,-64.24813
345,"C0345","Petirossi",3006,"Riga y Los Pinos",-31.44374,-64.24806
346,"C0346","Petirossi",2800,"Olivares y Alianza",-31.44159,-64.24806
347,"C0347","Petirossi",2613,"Antartida y Esmeralda",-31.43926,-64.24806
348,"C0348","Petirossi",2406,"Reconquista y Lagunilla",-31.43696,-64.24804
349,"C0349","Petirossi",2267,"Gabriela Mistral y Manuel Bustos",-31.43582,-64.24798
350,"C0350","Petirossi",2051,"Uritorco y Fuerza Aerea",-31.43348,-64.24806
353,"C0353","Fuerza Aerea",4005,"Fournier y Marie Courie",-31.43235,-64.24134
355,"C0355","Fuerza Aerea",3525,"Felix Paz y Aaron Castellanos",-31.43197,-64.23523
358,"C0358","Fuerza Aerea",2693,"Blamey Lafore y Padre Lozano",-31.43122,-64.22453
361,"C0361","Fuerza Aerea",1785,"Mercedario y Paso de los Andes",-31.43057,-64.21493
362,"C0362","Fuerza Aerea",1611,"Fuerza Aerea y Julio Roca",-31.42945,-64.21163
363,"C0363","Rio Negro",1365,"Luis Agote y Dellepiane",-31.427263,-64.210226
365,"C0365","Rio Negro",1107,"Domingo Funes y Angelo de Peredo",-31.42259,-64.20909
369,"C0369","Mariano Moreno",915,"Pueyrredon y Fructuoso Rivera",-31.42304,-64.20149
370,"C0370","Mariano Moreno",642,"San Luis y Felix Aguilar",-31.42075,-64.20067
374,"C0374","Colon",521,"Ca¤ada y Jujuy",-31.41142,-64.1902
376,"C0376","Olmos",247,"Alvear y Maipu",-31.41465,-64.18011
381,"C0381","Catamarca",1240,"Pringles y Jacinto Rios",-31.41185,-64.16747
382,"C0382","Roma",450,"Pje. Juan Galiano y Pje. Manuel Soria",-31.41085,-64.16437
383,"C0383","Roma",682,"Oncativo y Libertad",-31.40856,-64.16521
385,"C0385","Roma",1272,"Charcas y Cochabamba",-31.402,-64.16767
386,"C0386","Roma",1500,"Padre Luis Monti y Suipacha",-31.40008,-64.16839
387,"C0387","Bulnes",1756,"Pje. Nores y Janer",-31.39819,-64.16619
388,"C0388","Bulnes",1898,"Janer y Mejico",-31.39756,-64.16417
390,"C0390","Malvinas",1050,"Aragon y Punta del Sauce",-31.39539,-64.1586
397,"C0397","Malvinas",2495,"Correa de Saa y Homero",-31.38976,-64.13755
401,"C0401","Alsina",2196,"Villacorta y Oca¤a y Tomas de Archondo",-31.38386,-64.13335
402,"C0402","Alsina",2400,"Jose de Medeiros y Tadeo Davila",-31.38197,-64.13334
403,"C0403","Alsina",2584,"Leon y Pizarro y Vilchez y Montoya",-31.37962,-64.13332
404,"C0404","Alsina",2791,"Rafael de Palencia y Fuenzalida Meneses",-31.37815,-64.1333
405,"C0405","Capdevila",2577,"Wilson y Heroes de Vilcapujio",-31.37795,-64.13604
406,"C0406","Julio de Vedia",2836,"Usandivaras y Pereyra Lucena",-31.37785,-64.13825
407,"C0407","Julio de Vedia",2995,"Roque Tollo y Federico Rauch",-31.376,-64.13824
408,"C0408","Julio de Vedia",3172,"Rio Pasaje y Jose de Arredondo",-31.37406,-64.13822
409,"C0409","Julio de Vedia",3260,"Tomas de Rocamora y Fernando Abramo",-31.37175,-64.13823
410,"C0410","Julio de Vedia",3550,"Niceto Vega y Jose Chorroarin",-31.36988,-64.1382
412,"C0412","Julio de Vedia",3792,"Perez de Denis y Aberastain Oro",-31.36611,-64.13816
414,"C0414","Publica de Zepa B",,"Frente Manzana 6",-31.38937,-64.10248
415,"C0415","Publica de Zepa B",,"Frente Manzana 2 ",-31.39019,-64.10295
416,"C0416","Publica de Zepa B",,"Frente Manzana 9 ",-31.38978,-64.10952
417,"C0417","Publica de Zepa B",,"Frente Manzana 7 ",-31.38964,-64.11074
418,"C0418","De la Semilleria",,"Frente Mercado",-31.39121,-64.11176
419,"C0419","Alcaraz",6100,"Frente Casilla",-31.39035,-64.11331
420,"C0420","Alcaraz",5970,"Anchoris y Charlevoix",-31.38893,-64.11574
421,"C0421","Alcaraz",5914,"Jeronimo Nadal y Ladislao Orosz",-31.38882,-64.11682
422,"C0422","Alcaraz",5808,"Lorenzo Rillos y Marchoni",-31.38863,-64.11846
423,"C0423","Machioni",1859,"Nieto Herrera y Bulnes",-31.38634,-64.11838
424,"C0424","Bulnes",5618,"Machioni y Astori",-31.38631,-64.12104
425,"C0425","Astori",1685,"Alcaraz y Anchoriz",-31.38736,-64.12194
426,"C0426","Astori",1703,"Alcaraz y Anchoriz",-31.3883,-64.12211
427,"C0427","Astori",1551,"Anchoriz y",-31.39025,-64.12243
428,"C0428","Astori",,"Astori y Xanaes",-31.39257,-64.12279
429,"C0429","Xanaes",,"Xanaes esquina Urien",-31.39288,-64.12479
430,"C0430","Urien",1495,"Suncho Huaco y Suipacha",-31.39125,-64.125
431,"C0431","Urien",1633,"Nu¤ez y Anchoris",-31.38941,-64.1247
432,"C0432","Urien",1786,"Alcaraz y Bulnes",-31.38751,-64.12439
433,"C0433","Malvinas",3500,"Colectora y Condarco",-31.38752,-64.12818
434,"C0434","Malvinas",3371,"Ramon de Clairac y Mesa y Castro",-31.38804,-64.1304
435,"C0435","Carassa",3100,"Malvinas y Alsina",-31.38842,-64.13203
436,"C0436","Carassa",2918,"Alsina y Altolaguirre",-31.38847,-64.1337
437,"C0437","Bulnes",4690,"Alsina y Chachapoyas",-31.38916,-64.13307
438,"C0438","Bulnes",4820,"Montemayor y Mesa y Castro",-31.38891,-64.13198
439,"C0439","Bulnes",,"Elizalde y Ustaris y Martin Allende",-31.38839,-64.12981
440,"C0440","Martin Allende",1518,"Nuñez y Suipacha",-31.39061,-64.12937
441,"C0441","Martin Allende",1409,"Suipacha y Padre Luis Monti",-31.39249,-64.12939
442,"C0442","Padre Luis Monti",4800,"Mesa y Castro y Montemayor",-31.39289,-64.13135
443,"C0443","Padre Luis Monti",4643,"Chachapoyas y Alsina",-31.39291,-64.13242
444,"C0444","Altolaguirre",1312,"Padre Luis Monti y Cochabamba",-31.39391,-64.13408
445,"C0445","Cochabamba",4327,"Edison y Wilson",-31.3945,-64.13522
446,"C0446","Cochabamba",4000,"Vaccaro y San Martin",-31.39452,-64.13629
447,"C0447","Cochabamba",3956,"Zavalia y Orgaz",-31.39433,-64.13887
448,"C0448","Cochabamba",3809,"Tierra del Fuego y Rawson",-31.39432,-64.14054
449,"C0449","Cochabamba",3656,"Duran y Clemente Villada",-31.39433,-64.14227
450,"C0450","Cochabamba",3509,"Fravet y Tula Cervin",-31.39456,-64.14392
451,"C0451","Cochabamba",3408,"Tomas Dombidas y Victor Manuel III",-31.39474,-64.14505
452,"C0452","Cochabamba",3111,"Juan Cavero y J de Dios Filiberto",-31.39524,-64.14719
453,"C0453","Cochabamba",2924,"Villoldo y Contursi",-31.39568,-64.14877
454,"C0454","Cochabamba",2767,"Santos Discepolo y Homero Manzi",-31.39618,-64.15033
455,"C0455","Cochabamba",2512,"Anibal Troilo y Ciriaco Ortiz",-31.39684,-64.15238
456,"C0456","Cochabamba",2400,"Juan Jose Casal y Maximo Virgolini",-31.39753,-64.15457
457,"C0457","Cochabamba",2305,"Maximo Virgolini y Polonia",-31.39818,-64.15662
458,"C0458","Cochabamba",2200,"Polonia y Garibaldo",-31.39873,-64.15835
459,"C0459","Cochabamba",2109,"Garibaldi y Eufrasio Loza",-31.39937,-64.1604
460,"C0460","Cochabamba",1914,"Patria y Mejico",-31.40001,-64.16247
461,"C0461","Cochabamba",1825,"Antranik y Janer",-31.40054,-64.16414
462,"C0462","Cochabamba",1500,"Roman Deheza y Roma",-31.4015,-64.16744
463,"C0463","Viamonte",1207,"Cochabamba y Charcas",-31.40244,-64.16883
464,"C0464","Viamonte",1050,"Buchardo y Juan de Garay",-31.40424,-64.16818
465,"C0465","Viamonte",769,"Rincon y Libertad",-31.40699,-64.16715
467,"C0467","Sarmiento",1321,"Viamonte y Jacinto Rios",-31.41043,-64.16651
473,"C0473","San Jeronimo",343,"Obispo Salguero y Chacabuco",-31.41865,-64.17959
482,"C0482","Pueyrredon",1357,"Misiones y La Pampa",-31.42199,-64.2061
483,"C0483","Pueyrredon",1670,"Rio Negro y Miguel Urrutia",-31.42094,-64.20976
485,"C0485","Sol de Mayo",1230,"Peru y Brasil",-31.42403,-64.21236
487,"C0487","Luis Agote",2130,"Ocaña y Josefa Zavattaro",-31.42671,-64.215159
488,"C0488","Luis Agote",2341,"Sipe Sipe y Punta Lara",-31.42630833,-64.21729444
489,"C0489","Luis Agote",2566,"Echeverria y Gilardo Gilardi",-31.42559,-64.22088
490,"C0490","Luis Agote",2743,"Blamey Lafore y Brown",-31.42517,-64.22305
491,"C0491","Luis Agote",2912,"Constantino Gaito y Leon Pinelo",-31.42474,-64.2253
492,"C0492","Luis Agote",3068,"Schubert y Maestro Vidal",-31.42422,-64.22798
493,"C0493","Luis Agote",3240,"Comechingones y Maldonado",-31.4239,-64.22967
494,"C0494","Luis Agote",3390,"Los Platanos y Miguel Carcano",-31.42359,-64.23125
495,"C0495","Luis Agote",3634,"Felix Paz y Warnes",-31.42304,-64.23402
498,"C0498","Iseas",1538,"Alcorta y Manuel de Fierro",-31.42439,-64.2376
499,"C0499","Graham Bell",1642,"Arenales Uriburu y Alberto Williams",-31.42678,-64.2367
500,"C0500","Williams",4000,"Luis Pasteur y Mary Curie",-31.42682,-64.23824
501,"C0501","Williams",4176,"Fournier y Roque Arias",-31.42637,-64.2405
502,"C0502","Williams",4319,"Ruiz de Guzman y Acu¤a",-31.42631,-64.24272
503,"C0503","Williams",4488,"Aviador Abel y Aviador Abel",-31.42632,-64.24553
504,"C0504","Aviador Abel",1560,"Arenales Uriburu y Chavez",-31.42558,-64.24595
505,"C0505","Aviador Abel",1455,"Bradley y Santibañes",-31.42374,-64.24594
506,"C0506","Aviador Abel",1410,"Zabala y Mendoza",-31.4228,-64.24594
507,"C0507","Figueroa",4574,"Aviador Abel y Aviador Kingsley",-31.42145,-64.24678
508,"C0508","Figueroa",4574,"Aviador Abel y Aviador Kingsley",-31.42145,-64.24678
509,"C0509","Aviador Kinsgley",1355,"Figueroa y Guemes",-31.42145,-64.24678
510,"C0510","Aviador Kingsley",1614,"Santiba¤ez y Bradley",-31.42324,-64.247
511,"C0511","Aviador Kingsley",1500,"Zuloaga y Chavez",-31.4246,-64.247
512,"C0512","Aviador Kingsley",1350,"Kingsley esquina con Williams",-31.42598,-64.24702
513,"C0513","Williams",4435,"Aviador Abel y Aviador Richardson",-31.42633,-64.24535
514,"C0514","Williams",4325,"Aviador Camilotti y Acu¤a",-31.42634,-64.24317
515,"C0515","Williams",4200,"Ruiz de Guzman y Roque Arias",-31.42634,-64.24152
517,"C0517","Williams",3824,"Pasteur y Graham Bell",-31.42698,-64.23751
518,"C0518","Graham Bell",1579,"Arenales Uriburu y De Chavez",-31.42669,-64.23664
519,"C0519","Alcorta",3800,"Graham Bell y Iseas",-31.42478,-64.23734
520,"C0520","Iseas",1470,"Rodrigo Pereyra y Jacobo Wolff",-31.42399,-64.23706
522,"C0522","Luis Agote",3625,"Warnes y Felix Paz",-31.423,-64.23435
523,"C0523","Luis Agote",3400,"Luis Gaona y Miguel Carcano",-31.42333,-64.23272
524,"C0524","Luis Agote",3253,"Los Platanos y Maldonado",-31.42375,-64.23056
525,"C0525","Luis Agote",3061,"Maestro Vidal y Schubert",-31.42417,-64.2284
526,"C0526","Luis Agote",2878,"Leon Pinelo y Constantino Gaito",-31.42469,-64.2257
527,"C0527","Luis Agote",2774,"Chazarreta y Brown",-31.42501,-64.22402
528,"C0528","Luis Agote",2600,"Padre Lozano y Gilardo Gilardi",-31.42545,-64.22175
529,"C0529","Luis Agote",2451,"Olegario Correa y Pedro Goyena",-31.42588,-64.21958
530,"C0530","Luis Agote",2305,"Punta Lara y Sipe Sipe",-31.42631,-64.21741
531,"C0531","Luis Agote",2143,"Haedo y Ocaña",-31.42652,-64.21628
532,"C0532","Luis Agote",1800,"Ingeniero Lopez y Sol de Mayo",-31.42706,-64.2135
533,"C0533","Luis Agote",1646,"Roque Suarez y Rio Negro",-31.42755556,-64.21065833
534,"C0534","Rio Negro",1365,"Luis Agote y Luis Dellepiane",-31.427103,-64.210179
535,"C0535","Rio Negro",1243,"Brasil y Peru",-31.42534,-64.2097
538,"C0538","Pueyrredon",1177,"Paraguay y Paso de los Andes",-31.42256,-64.20443
539,"C0539","Funes",1039,"Paso de los Andes y Mariano Moreno",-31.42455,-64.20242
542,"C0542","Mariano Moreno",233,"Duarte Quiros y Caseros",-31.41518,-64.19861
543,"C0543","Rodriguez Peña",170,"9 de Julio y Colon",-31.41068,-64.19696
544,"C0544","Colon",833,"Avellaneda y Urquiza",-31.41028,-64.19445
548,"C0548","Olmos",478,"Salta y Santiago del Estero",-31.41559,-64.17708
555,"C0555","Roma",1040,"Juan de Garay y Buchardo",-31.40467,-64.16667
557,"C0557","Padre Luis Monti",1738,"Nores y Janer",-31.40024,-64.16624
558,"C0558","Padre Luis Monti",1913,"Mejico y Patria",-31.39927,-64.16314
559,"C0559","Padre Luis Monti",2196,"Eufrasio Loza y Garibaldi",-31.39826,-64.15996
560,"C0560","Padre Luis Monti",2292,"Garibaldi y Polonia",-31.39759,-64.15785
561,"C0561","Padre Luis Monti",2392,"Polonia y Maximo Virgolini",-31.39694,-64.15576
562,"C0562","Padre Luis Monti",2490,"Juan Jose Casal y Ciriaco Ortiz",-31.39628,-64.15376
563,"C0563","Padre Luis Monti",2692,"Anibal Troilo y Homero Manzi",-31.3956,-64.15162
564,"C0564","Padre Luis Monti",2888,"Santos Discepolo y Pascual Contursi",-31.39496,-64.14953
565,"C0565","Padre Luis Monti",3068,"Angel Villoldo y Celedonio Flores",-31.39463,-64.14848
566,"C0566","Padre Luis Monti",3282,"Juan Cavero y Jose Cervini",-31.39419,-64.14685
567,"C0567","Padre Luis Monti",3492,"Tomas Dombidas y Tula Cervin",-31.39368,-64.14471
568,"C0568","Padre Luis Monti",3687,"Jose de Quevedo y Clemente Villada",-31.3932,-64.14305
569,"C0569","Padre Luis Monti",3792,"Duran y Rawson",-31.393,-64.14086
570,"C0570","Padre Luis Monti",3933,"Cabo de Hornos y Orgaz",-31.39303,-64.13977
571,"C0571","Padre Luis Monti",4040,"Zavalia y San Martin",-31.393,-64.13808
572,"C0572","Padre Luis Monti",4200,"Severo Vaccaro y Franklin",-31.39299,-64.13696
573,"C0573","Padre Luis Monti",4392,"Wilson y Edison",-31.39298,-64.13526
574,"C0574","Padre Luis Monti",4582,"Altolaguirre y Alsina",-31.39296,-64.13359
575,"C0575","Padre Luis Monti",4773,"Chachapoyas y Montemayor",-31.39293,-64.13249
576,"C0576","Padre Luis Monti",4994,"Ramon de Clairac y Elizalde y Ustrariz",-31.39289,-64.13025
577,"C0577","Padre Luis Monti",5078,"Allende y Condarco",-31.3929,-64.12915
578,"C0578","Condarco",1498,"Padre Luis Monti y Suipacha",-31.39161,-64.12876
579,"C0579","Condarco",1586,"Suipacha y Nuñez",-31.39024,-64.12877
580,"C0580","Condarco",1698,"Nuñez y Bulnes",-31.38872,-64.12877
581,"C0581","Bulnes",4700,"Mesa y Castro y Montemayor",-31.38875,-64.13143
582,"C0582","Malvinas",3000,"Altolaguirre y Alsina",-31.38896,-64.13402
583,"C0583","Malvinas",3275,"Montemayor y Mesa y Castro",-31.38843,-64.13185
584,"C0584","Malvinas",3500,"Clariac y Condarco",-31.38788,-64.12952
585,"C0585","Urien",1781,"Bulnes y Alcaraz",-31.38728,-64.12435
586,"C0586","Urien",1659,"Sayos y Anchoris",-31.38871,-64.12461
587,"C0587","Urien",1521,"Carbajal y Suipacha",-31.3906,-64.12493
588,"C0588","Urien",,"Suncho Huaico y Xanaes",-31.39252,-64.12523
589,"C0589","Xanaes",,"Urien y Astori",-31.39305,-64.12271
590,"C0590","Astori",1500,"Xanaes y Suipacha",-31.3916,-64.12258
591,"C0591","Astori",1603,"Suipacha y Anchoris",-31.3902,-64.12236
592,"C0592","Astori",1674,"Anchoris y Alcaraz",-31.38828,-64.12206
593,"C0593","Astori",1794,"Alcaraz y Bulnes",-31.38684,-64.12184
594,"C0594","Bulnes",5705,"Astori y Machoni",-31.38622,-64.12045
595,"C0595","Bulnes",5800,"Astori y Machoni",-31.38584,-64.11878
596,"C0596","Machoni",1700,"Alonso Nieto Herrera y Alcaraz",-31.38805,-64.11868
597,"C0597","Alcaraz",5870,"Lorenzo Rillos y Ladislao Orosz",-31.38879,-64.11775
598,"C0598","Alcaraz",5976,"Blas Varela y Francisco Charlevoix",-31.38897,-64.11604
599,"C0599","Alcaraz",,"Esquina con Mercado",-31.39058,-64.1121
600,"C0600","Publica de Zepa B",,"Frente Manzana 7",-31.38973,-64.11175
601,"C0601","Publica de Zepa B",,"Frente Manzana 8",-31.38977,-64.11012
602,"C0602","Publica de Zepa B",,"Frente Manzana 2",-31.39017,-64.10394
603,"C0603","Publica de Zepa B",,"Frente Manzana 6",-31.3896,-64.10198
604,"C0604","Costa Rica",2957,"Sierras Grandes y Jesus Maria",-31.413818,-64.145893
605,"C0605","Costa Rica",2811,"Jesus Maria y Sin Datos",-31.414099,-64.147524
606,"C0606","Martires",292,"Costa Rica y Caroya",-31.41442,-64.14804
607,"C0607","Sinsacate",2500,"Loreto y Baylen",-31.4149,-64.14954
608,"C0608","Sinsacate",2330,"Juan Roque y Yatasto",-31.41534,-64.15114
609,"C0609","Sinsacate",2165,"Remedios de escalada y Burges",-31.41577,-64.15273
610,"C0610","Sinsacate",2053,"Gral. Sandino y Nueva Zelanda",-31.41606,-64.15377
611,"C0611","Nueva Zelanda",105,"Panama y Germania",-31.41438,-64.15508
614,"C0614","Guemes",5,"Angel Machado y Rosario de Santa Fe",-31.41444,-64.16043
615,"C0615","Republica Dominicana",100,"4 de Febrero y Juan Larrea",-31.41582,-64.15984
616,"C0616","Republica Dominicana",294,"Alejandro Carbo y Manuel Dorrego",-31.41802,-64.16046
617,"C0617","Asuncion",350,"Juan Jose Paso y Leonor de Tejedo",-31.41858,-64.16133
618,"C0618","Vespucio",1610,"Asuncion y Uruguay",-31.42026,-64.16219
619,"C0619","Vespucio",1415,"Salto y Garzon Agulla",-31.41983,-64.16441
620,"C0620","Vespucio",1211,"Posadas y Rio Cuarto",-31.41942,-64.16664
621,"C0621","San Nicolas",405,"Vespucio y Leonor de Tejeda",-31.41847,-64.16809
622,"C0622","San Nicolas",205,"Juan Jose Paso y Rosario de Santa Fe",-31.41666,-64.16758
623,"C0623","David Luque",295,"24 de Setiembre y Catamarca",-31.41383,-64.16855
624,"C0624","Sarmiento",949,"Felix Frias",-31.41165,-64.17105
628,"C0628","Gral. Paz",365,"La Rioja y Santa Rosa",-31.41091,-64.18498
629,"C0629","Gral. Paz",30,"9 de Julio y Dean Funes",-31.41479,-64.18655
632,"C0632","M.T. de Alvear",360,"Duarte Quiros y San Juan",-31.41917,-64.19005
634,"C0634","M.T. de Alvear",628,"San Luis y Ayacucho",-31.42203,-64.19257
638,"C0638","Julio Roca",492,"Rodolfo Reyna y Arturo Bas",-31.42839,-64.19789
639,"C0639","Julio Roca",680,"Corro y Artigas",-31.42878,-64.20063
640,"C0640","Elpidio Gonzalez",1468,"Zavaleta y Bambilla",-31.42913,-64.20166
641,"C0641","Elpidio Gonzalez",1570,"Bambilla y Sin Datos",-31.43094,-64.2022
642,"C0642","Fuencarral",754,"Elpidio Gonzalez y Canalejas",-31.43292,-64.20322
643,"C0643","Fuencarral",948,"Paso de los Andes y Sin Datos",-31.4324,-64.20597
644,"C0644","Fuencarral",1045,"Alejandro Dumas y Misiones",-31.43202,-64.20814
645,"C0645","La Pampa",1758,"Minerva y Alcala",-31.43227,-64.2094
646,"C0646","La Pampa",1914,"Neptuno y Venus",-31.43371,-64.20979
647,"C0647","Venus",1040,"Alejandro Dumas y Emilio Achaval",-31.43466,-64.20899
648,"C0648","Emilio Achaval",2066,"Ferreyra y Benito Soria",-31.43577,-64.20823
649,"C0649","Kronfus",2308,"Romagosa y La Cañada",-31.43759,-64.20903
650,"C0650","Kronfus",2505,"La Cañada y Goicocechea",-31.43856,-64.21044
651,"C0651","Kronfus",2598,"Goicoechea y Jose Baca",-31.43938,-64.21158
652,"C0652","Laspiur",2778,"Rodriguez de la Torre y Domingo de Irala",-31.44111667,-64.212925
653,"C0653","Tronador",2852,"Olayon y Antonio Melo ",-31.44159444,-64.21491111
654,"C0654","Guayama",1949,"Tronador y Aconquija",-31.4428,-64.21546
655,"C0655","Aconquija",3090,"Yanquetruz y Ibacla",-31.44382,-64.21652
656,"C0656","Lorenzo Ibacla",1950,"Tronador y Aconquija",-31.445899,-64.216575
658,"C0658","Baigorria",1050,"Rio Negro y Cacheuta",-31.44563,-64.2126
659,"C0659","Cacheuta",3290,"San Antonio y Jose Pizarro",-31.44626,-64.21154
660,"C0660","Pizarro",1200,"Cacheuta y Horacio Martinez",-31.446181,-64.213376
661,"C0661","Horacio Martinez",3494,"Novillo Martinez y Virgilio Moyano",-31.44741,-64.21386
662,"C0662","Horacio Martinez",3594,"Brandan y Eliseo Soaje",-31.44874,-64.214199
663,"C0663","Horacio Martinez",3800,"Manuel Moreno y Tafi",-31.45087,-64.2148
664,"C0664","Tafi",1100,"Horacio Martinez y Cacheuta",-31.45139,-64.21327
665,"C0665","Cacheuta",3914,"Tafi y Trelew",-31.45286,-64.21348
666,"C0666","Cacheuta",4090,"Trelew y Huiliches",-31.45569,-64.21429
667,"C0667","Huiliches",1196,"Publica Ey Treviso",-31.45572,-64.21623
668,"C0668","Huiliches",1274,"Terry y Rio Negro",-31.4555,-64.21739
669,"C0669","Manzana D Lote 6",,"Rio Negro y Sin Datos",-31.4572,-64.21854
670,"C0670","Manzana H Lote 14",,"Frente Manzana H ",-31.45661,-64.22063
671,"C0671","Manzana J Lote 24",,"Frente Manzana J ",-31.45624,-64.22164
672,"C0672","Manzana Q Lote 3",,"Frente Manzana Q ",-31.455178,-64.222386
673,"C0673","Manzana T Lote 27",,"Frente Manzana T ",-31.45337,-64.22325
675,"C0675","Publica SMATA",,"Frente Manzana N ",-31.45434,-64.22351
676,"C0676","Publica SMATA",,"Frente Manzana F ",-31.45564,-64.22289
677,"C0677","Publica SMATA",,"Frente Manzana E ",-31.45617,-64.22196
678,"C0678","Publica SMATA",,"Frente Manzana E ",-31.45652,-64.22089
679,"C0679","Publica SMATA",,"Frente Manzana D ",-31.45726,-64.21882
680,"C0680","Huiliches",1281,"Rio Negro y Terry",-31.4555,-64.21799
681,"C0681","Huiliches",1115,"Publica F y Cacheuta",-31.45605,-64.21469
682,"C0682","Cacheuta",4000,"Huiliches y Paso de la Patria",-31.454833,-64.213632
683,"C0683","Cacheuta",3800,"Trelew y Tafi",-31.45247,-64.21299
684,"C0684","Horacio Martinez",3756,"Tafi y Manuel Moreno",-31.45095,-64.21482
685,"C0685","Horacio Martinez",3465,"Virgilio Moyano y Novillo Martinez",-31.44727,-64.21366
686,"C0686","San Antonio",1189,"Martinez y Cacheuta",-31.44632,-64.21356
687,"C0687","San Antonio",1100,"Martinez y Cacheuta",-31.44583,-64.21173
688,"C0688","Baigorria",1050,"Cacheuta y Rio Negro",-31.44554,-64.21215
689,"C0689","Tronador",3070,"Ibacla y Yanquetruz",-31.44559,-64.21585
690,"C0690","Tronador",2973,"Yanquetruz y Ibiac",-31.443118,-64.215257
691,"C0691","Rio Negro",2800,"Guayama y Irala",-31.4413,-64.21399
692,"C0692","Kronfus",2566,"Jose Baca y Rafael Igarazabal",-31.43964,-64.21191
693,"C0693","Kronfus",2505,"Goycoechea y la Misma",-31.43873,-64.21061
694,"C0694","Kronfus",2305,"La Cañada y Romagosa",-31.43782,-64.20929
695,"C0695","Emilio Achaval",2117,"Romagosa y Benito Soria",-31.43713,-64.20857
696,"C0696","Emilio Achaval",2055,"Benito Soria y Fereryra",-31.436043,-64.208333
698,"C0698","Dumas",1901,"Venus y Preciados",-31.43419,-64.20857
699,"C0699","Alcala",1005,"Dumas y Emilio Achaval",-31.43301,-64.20792
700,"C0700","Alcala",917,"Paraguay y",-31.43333,-64.20629
701,"C0701","Alcala",715,"Canalejas y Elpidio Gonzalez",-31.433837,-64.203618
702,"C0702","Elpidio Gonzalez",1721,"Alcala y Fuencarral",-31.43356,-64.20286
703,"C0703","Elpidio Gonzalez",1575,"Rufino Zado y Mayor",-31.43161,-64.20236
704,"C0704","Elpidio Gonzalez",1463,"Bambilla y Zavaleta",-31.42931,-64.20167
705,"C0705","Julio Roca",557,"Corro y Arturo Bas",-31.42877,-64.19921
711,"C0711","Belgrano",147,"Caseros y 27 de Abril",-31.41659,-64.18897
716,"C0716","24 de Setiembre",772,"Ocampo y Ovidio Lagos",-31.4156,-64.17271
717,"C0717","24 de Setiembre",980,"Esquiu y Felix Frias",-31.414918,-64.170141
718,"C0718","Felix Frias",105,"24 de Setiembre y 25 de Mayo",-31.41603,-64.16914
719,"C0719","La Plata",496,"Leonor de Tejeda y Americo Vespucio",-31.41882,-64.16933
720,"C0720","Zuviria",1086,"La Plata y San Nicolas",-31.42009,-64.16918
721,"C0721","Zuviria",1266,"Rio Cuarto y Posadas",-31.4205,-64.16699
722,"C0722","Zuviria",1494,"Garzon Agulla y Salto",-31.4209,-64.16468
723,"C0723","Zuviria",1690,"Uruguay y Asuncion",-31.42136,-64.16235
724,"C0724","Copiapo",507,"Arenales y Americo Vespucio",-31.42074,-64.16071
725,"C0725","Copiapo",311,"Leonor de Tejeda y Manuel Dorrego",-31.4189,-64.16027
726,"C0726","Copiapo",89,"Juan Larrea y 4 de Febrero",-31.41611,-64.15898
727,"C0727","Copiapo",5,"4 de Febrero y Rosario de Santa Fe",-31.41515,-64.1593
728,"C0728","Rosario de Santa Fe",1892,"Manuel Rio y Pedro Savid",-31.41429,-64.15843
729,"C0729","Rosario de Santa Fe",1994,"Pichincha y Patria",-31.41339,-64.15651
730,"C0730","Rosario de Santa Fe",2100,"Bio-Bio y Sandino",-31.41297,-64.15492
731,"C0731","Sandino",189,"Germania y Panama",-31.4148,-64.15412
732,"C0732","Panama",2180,"Burges y Remedios de Escalada",-31.41476,-64.15301
733,"C0733","Panama",2374,"Yatasto y Juan Roque",-31.41431,-64.15142
734,"C0734","Panama",2547,"Juan Roque y Sin Datos",-31.41386,-64.14976
735,"C0735","Panama",2720,"Costa Rica y Caroya",-31.413485,-64.148404
737,"C0737","Costa Rica",2956,"Panama y Sierra Grande",-31.413766,-64.145942
740,"C0740","Los Martires",123,"Costa RIca y Sin Datos",-31.41314,-64.14848
741,"C0741","Los Martires",11,"Germania y Rosario de Sta Fe",-31.41183,-64.149
742,"C0742","Castañares",268,"Av 24 de Septiembre y Bajada de Piedras",-31.40912,-64.15
743,"C0743","Achupayas",300,"Bajada de Piedras y Lima",-31.40885,-64.15116
744,"C0744","Achupayas",425,"Catamarca y La Plaza",-31.40746,-64.15167
745,"C0745","Achupayas",550,"Sarmiento y Oncativo",-31.40606,-64.15218
746,"C0746","Libertad",2620,"Achupayas y Sin Datos",-31.40431,-64.15297
747,"C0747","Libertad",2311,"Gavilan y Curapaligüe",-31.40489,-64.15509
748,"C0748","Eufrasio Loza",650,"Libertad y Lituania",-31.40592,-64.15742
749,"C0749","Eufrasio Loza",496,"Oncativo y Sarmiento",-31.40771,-64.15678
750,"C0750","Eufrasio Loza",365,"Catamarca y Jose Veron",-31.40909,-64.15624
751,"C0751","Eufrasio Loza",215,"Frasnadillo y 24 de Setiembre",-31.41044,-64.15576
752,"C0752","25 de Mayo",2009,"Bio-Bio y Patria",-31.41224,-64.15626
753,"C0753","25 de Mayo",1815,"Mejico y Araoz de Lamadrid",-31.41306,-64.15941
754,"C0754","25 de Mayo",1541,"Roman Deheza y Roma",-31.41397,-64.16266
755,"C0755","25 de Mayo",1307,"Viamonte y Jacinto Rios",-31.41469,-64.16537
756,"C0756","25 de Mayo",1106,"Pringles y David Luque",-31.4153,-64.16754
760,"C0760","Guzman",200,"Lima y Olmos",-31.41503,-64.17585
763,"C0763","27 de Abril",154,"Obispo Trejo y Velez Sarsfield",-31.41665,-64.18592
764,"C0764","27 de Abril",325,"Belgrano y Ayacucho",-31.41586,-64.18867
765,"C0765","M.T. de Alvear",175,"27 de Abril y Caseros",-31.41584,-64.191
766,"C0766","M.T. de Alvear",482,"San Juan y Montevideo",-31.42061,-64.19059
768,"C0768","M.T. de Alvear",842,"Achaval Rodriguez y Fructuoso Rivera",-31.424634,-64.193853
769,"C0769","Pueyrredon",500,"Rafael Escuti y Simon Bolivar",-31.42543,-64.19517
770,"C0770","Pueyrredon",675,"Arturo M. Bas y Corro",-31.42451,-64.19788
771,"C0771","Pueyrredon",987,"Juan Davis y Mariano Moreno",-31.42358,-64.20099
777,"C0777","Sol de Mayo",1363,"Luis Dellepiane y Luis Agote",-31.42646,-64.213
779,"C0779","Tronador",1892,"Tupungato y Aconcagua",-31.43154,-64.21641
780,"C0780","Tronador",2016,"Champaqui y Tronador",-31.43297,-64.21628
781,"C0781","Tronador",2180,"Tronador y Pacheco de Mendoza",-31.43498,-64.21516
782,"C0782","Tronador",2346,"Pacheco de Mendoza y Monte Bonete",-31.43656,-64.21505
783,"C0783","Tronador",2494,"Cerro Bonete y Cerro Conico",-31.43825,-64.21518
784,"C0784","Cerro Conico",2089,"Campanario y Aconquija",-31.43875,-64.2164
785,"C0785","Aconquija",2379,"Cerro Conico y Lagunilla",-31.43724,-64.21652
786,"C0786","Lagunilla",2332,"Cumbres Negras y Cerro del Morro",-31.43689,-64.21857
787,"C0787","Lagunilla",2516,"Cerro del Morro y Sin Datos",-31.4369,-64.22134
788,"C0788","Lagunilla",2648,"La Entente y Pedro Lozano",-31.43691,-64.22302
792,"C0792","Antartida",3000,"Felipe Boero y La Paz",-31.44026,-64.2283
793,"C0793","La Paz",2607,"Dalessio y Octaviano Navarro",-31.43945,-64.22871
794,"C0794","La Paz",2437,"Reconquista y Lagunilla",-31.43756,-64.2287
795,"C0795","Lagunilla",3154,"Domuyo y Houssay",-31.43692,-64.2302
796,"C0796","Lagunilla",3321,"Houssay y Talma",-31.43685,-64.23251
797,"C0797","Lagunilla",3488,"Talma y Aaron Castellanos",-31.43687,-64.23413
798,"C0798","Fleming",2490,"Lagunilla y Reconquista",-31.43733,-64.23588
810,"C0810","Diamante",3380,"Varela Ortiz y Luis Pasteur",-31.44064,-64.23884
811,"C0811","Diamante",4100,"Maria Courie y Fournier",-31.44064,-64.24167
812,"C0812","Fournier",2615,"Antartida y Octaviano Navarro",-31.43925,-64.24179
813,"C0813","Fournier",2511,"Esmeralda y Reconquista",-31.438,-64.24179
814,"C0814","Reconquista",3918,"Maria Courie y Luis Pasteur",-31.43766,-64.24019
815,"C0815","Reconquista",3777,"Graham Bell y Varela Ortiz",-31.43765,-64.23843
816,"C0816","Reconquista",3611,"Diaz de la Fuente y Fleming",-31.43763,-64.23623
817,"C0817","Aaron Castellanos",2413,"Reconquista y Lagunilla",-31.436894,-64.234624
818,"C0818","Lagunilla",3300,"Talma y Houssay",-31.43686,-64.23291
819,"C0819","La Paz",2446,"Lagunilla y Reconquista",-31.43734,-64.22873
820,"C0820","La Paz",2600,"Reconquista y Octaviano Navarro",-31.43885,-64.22872
821,"C0821","La Paz",2740,"La Paz y Luis Angel Huergo",-31.44029,-64.22876
827,"C0827","Lagunilla",2512,"Echevarria y Olegario Correa",-31.43693,-64.22166
828,"C0828","Lagunilla",2300,"Cerro Morro y Cumbres Negras",-31.4369,-64.2192
829,"C0829","Lagunilla",2100,"Cumbres Negras y Aconquija",-31.43691,-64.21677
830,"C0830","Cerro Conico",2047,"Aconquija y Campanario",-31.43854,-64.21656
831,"C0831","Tronador",2438,"Cerro Conico y Monte Bonete",-31.43792,-64.21513
832,"C0832","Tronador",2286,"Monte Bonete y Agua Nueva",-31.4364,-64.21501
833,"C0833","Tronador",2117,"Agua Nueva y Tromen",-31.43433,-64.2152
834,"C0834","Tronador",2000,"Tromen y Champaqui",-31.43296,-64.21624
835,"C0835","Tronador",1809,"Champaqui y Tupungato",-31.4315,-64.21639
841,"C0841","Pueyrredon",1446,"Santa Cruz y La Pampa",-31.42165,-64.20742
843,"C0843","Pueyrredon",1065,"Paso de los Andes y Mariano Moreno",-31.42318,-64.20243
844,"C0844","Pueyrredon",651,"Corro y Arturo M. Bas",-31.42465,-64.19776
846,"C0846","Peredo",400,"Bolivar y M.T. de Alvear",-31.42581,-64.19551
847,"C0847","Belgrano",827,"Fructuoso Rivera y Sin Datos",-31.42474,-64.19239
848,"C0848","Belgrano",475,"Montevideo y San Juan",-31.4205,-64.18989
852,"C0852","Olmos",238,"Alvear y Maipu",-31.41466,-64.17967
856,"C0856","24 de Setiembre",1150,"David Luque y Pringles",-31.41441,-64.16817
857,"C0857","24 de Setiembre",1360,"Jacinto Rios y Viamonte",-31.41368,-64.16555
858,"C0858","24 de Setiembre",1594,"Roma y Roman Deheza",-31.41294,-64.16294
859,"C0859","24 de Setiembre",1796,"Martin de Guemes y Sin Datos",-31.41229,-64.16046
860,"C0860","24 de Setiembre",1970,"Pichincha y Patria",-31.41155,-64.15778
861,"C0861","24 de Setiembre",2150,"Eufrasio Loza y Camacua",-31.41083,-64.15516
862,"C0862","Garibaldi",400,"Jose Veron y Catamarca",-31.40881,-64.15507
863,"C0863","Garibaldi",600,"Sarmiento y Oncativo",-31.40695,-64.15576
864,"C0864","Oncativo",2396,"Ucrania y Gavilan",-31.40607,-64.15409
865,"C0865","Acoyte",505,"Oncativo y Sarmiento",-31.40603,-64.15306
866,"C0866","Acoyte",374,"Catamarca y Lima",-31.40786,-64.1524
867,"C0867","Acoyte",215,"Lima y 24 de Setiembre",-31.40925,-64.15188
868,"C0868","Castañares",112,"24 de Setiembre y 25 de Mayo",-31.4102,-64.14961
869,"C0869","Los Martires",100,"Rosario de Santa Fe y Panama",-31.41244,-64.14879
871,"C0871","Panama",2885,"Caroya y Jesus Maria",-31.414004,-64.147576
905,"C0905","Sabattini",1100,"Bajada Pucara y Sabattini",-31.42951,-64.16977
906,"C0906","Sabattini",500,"Frente A.C.A.",-31.42774,-64.17155
908,"C0908","Illia",619,"Transito Caceres de Allende y Balcarce",-31.423,-64.17732
912,"C0912","Jujuy",29,"Dean Funes y 9 de Julio",-31.41367,-64.19059
914,"C0914","Colon",59,"Rivera Indarte y San Martin",-31.41337,-64.18393
922,"C0922","24 de Setiembre",1886,"Lamadrid y Mejico",-31.41189,-64.15898
923,"C0923","Patria",290,"24 de Setiembre y Lima",-31.41049,-64.15732
924,"C0924","Patria",448,"Catamarca y Sarmiento",-31.40869,-64.15801
926,"C0926","Patria",930,"Armenia y Garay",-31.40361,-64.15987
927,"C0927","Patria",1196,"Buchardo y Charcas",-31.40081,-64.16091
928,"C0928","Patria",1526,"Suipacha y Bulnes",-31.39752,-64.16171
932,"C0932","Malvinas",1445,"Juan Tissera y Santiso y Moscoso",-31.39358,-64.15279
933,"C0933","Malvinas",1600,"Pronsato y Paysandu",-31.3927,-64.15003
934,"C0934","Malvinas",1965,"Chilavert y Victor Manuel III",-31.39181,-64.14626
936,"C0936","Malvinas",2345,"Celestino Vidal y Correa de Saa",-31.39034,-64.13997
937,"C0937","Correa de Saa",1750,"Corera de Lemos y Ortiz Montiel",-31.38831,-64.13861
938,"C0938","Correa de Saa",1900,"Ortiz Montiel y Domingo Echauri",-31.38687,-64.13859
939,"C0939","Homero",1996,"Echauri y Nicolas Isasmendi",-31.38568,-64.13716
940,"C0940","Homero",2094,"Nicolas Isasmendi y Villacorta y Oca¤a",-31.38474,-64.1372
941,"C0941","Villacorta y Ocaña",2700,"Heroes de Vilcapugio y Wilson",-31.38449,-64.13619
942,"C0942","Altolaguirre",2000,"Villacorta y Ocaña y Nicolas Isasmendi",-31.3853,-64.13412
943,"C0943","Taboada y Lemos",2988,"Altolaguirre y Alsina",-31.38751,-64.13363
944,"C0944","Montemayor",1761,"Taboada y Lemos y Malvinas",-31.38748,-64.1319
946,"C0946","Malvinas",3469,"Clairac y Elizalde y Ustaris",-31.38782,-64.12915
947,"C0947","Malvinas",3700,"Hernandez y Urien",-31.38663,-64.124
948,"C0948","Malvinas",4100,"Urien y Astori",-31.38625,-64.12239
949,"C0949","Malvinas",4700,"Las Toscas y Sin Datos",-31.38517,-64.11779
950,"C0950","Malvinas",5050,"Frente La Virginia",-31.38409,-64.11332
951,"C0951","Malvinas",5520,"Km 5,50",-31.38203,-64.10445
952,"C0952","Camino Montecristo",6000,"km 6",-31.3809,-64.09957
953,"C0953","Camino Montecristo",6200,"Km 6,5",-31.38037,-64.09732
954,"C0954","Camino Montecristo",6400,"Kilometro 6",-31.37987,-64.09508
955,"C0955","Camino Montecristo",6500,"Km 7",-31.37908,-64.09171
956,"C0956","Camino Montecristo",,"Kilometro 7.5",-31.37676,-64.08177
957,"C0957","Camino Montecristo",,"Estacion de Servicio",-31.37493,-64.07401
958,"C0958","Camino Montecristo",8500,"Km 9,5",-31.37327,-64.06693
959,"C0959","Camino Montecristo",,"Km 10",-31.37206,-64.0617
961,"C0961","Camino Montecristo",,"Andrada y Sin Datos",-31.371,-64.05783
962,"C0962","Urraca",302,"Pirincha y Martin Pescador",-31.36821,-64.05752
963,"C0963","El Pardal",9782,"Picaflor y Cardenal",-31.36616,-64.05805
964,"C0964","El Pardal",9713,"Tijereta y Benteveo",-31.36617,-64.05967
965,"C0965","Benteveo",3710,"Martin Pescador y La Pirincha",-31.36916,-64.06018
966,"C0966","Benteveo",3608,"La Pirincha y El Cacholote",-31.37057,-64.06018
967,"C0967","Camino Montecristo",,"Km 9,5",-31.37304,-64.06621
968,"C0968","Camino Montecristo",,"Km 9",-31.37382,-64.06962
969,"C0969","Camino Montecristo",,"Estacion de Servicio ",-31.37468,-64.07321
970,"C0970","Camino Montecristo",,"Km 8,5",-31.37562,-64.07724
971,"C0971","Camino Montecristo",,"Kilometro 7.5",-31.37661,-64.08158
972,"C0972","Camino Montecristo",6500,"Km 7",-31.37887,-64.09111
973,"C0973","Camino Montecristo",6300,"Kilometro 6",-31.37962,-64.09441
974,"C0974","Camino Montecristo",6150,"Km 6,5",-31.38025,-64.09707
975,"C0975","Camino Montecristo",6000,"Km 6 ,3",-31.38063,-64.09868
976,"C0976","Malvinas",5700,"Km 6",-31.38127,-64.10144
977,"C0977","Malvinas",5400,"Puesto de Maza",-31.38232,-64.10597
978,"C0978","Malvinas",5300,"km 5,5",-31.38284,-64.10824
979,"C0979","Malvinas",5200,"Puesto de Masa y  Las Quintas",-31.38333,-64.11032
980,"C0980","Malvinas",5050,"Frente La Virginia",-31.38395,-64.11297
981,"C0981","Malvinas",4700,"Las Quintas y Las Toscas",-31.38506,-64.11769
982,"C0982","Malvinas",3500,"Las Gredas y Circunvalacion",-31.38668,-64.12465
983,"C0983","Malvinas",3300,"Circunvalacion y Condarco",-31.3875,-64.12808
984,"C0984","Malvinas",3345,"Clariac y Mesa y Castro",-31.38805,-64.13043
986,"C0986","Alsina",1794,"Carassa y Gil de Taboada y Lemos",-31.38802,-64.13338
988,"C0988","Isasmendi",2600,"Wilson y Heroes de Vilcapugio",-31.38545,-64.13614
989,"C0989","Homero",1818,"Domingo Echauri y Gil de Taboada y Lemos",-31.38685,-64.13722
990,"C0990","Homero",1600,"Correa de Lemos y Malvians",-31.38928,-64.1372
991,"C0991","Malvinas",2305,"Celestino Vidal y Pedro de Ledesma",-31.39043,-64.1406
993,"C0993","Malvinas",1965,"Victor Manuel III y Chilavert",-31.39157,-64.14549
996,"C0996","Patria",1515,"Bulnes y Suipacha",-31.39726,-64.16194
999,"C0999","Malvinas",1230,"Carlos III y Juan XXIII",-31.39443,-64.15576
1000,"C1000","Patria",1276,"Cochabamba y Charcas",-31.39956,-64.16151
1001,"C1001","Patria",1015,"Buchardo y Juan de Garay",-31.40224,-64.1605
1002,"C1002","Patria",715,"Rincon y Libertad",-31.4054,-64.15933
1003,"C1003","Patria",561,"Oncativo y Sarmiento",-31.40723,-64.15867
1004,"C1004","Sarmiento",1911,"Patria y Mejico",-31.40852,-64.1594
1005,"C1005","Sarmiento",1759,"Araoz Lamadrid y Martin de Guemes",-31.40908,-64.16151
1006,"C1006","Sarmiento",1524,"Deheza y Roma",-31.40979,-64.16424
1013,"C1013","Humberto Primo",760,"Fragueiro y Urquiza",-31.40704,-64.19197
1014,"C1014","Avellaneda",359,"La Rioja y Santa Rosa",-31.40823,-64.1947
1015,"C1015","Colon",717,"Urquiza y Fragueiro",-31.41063,-64.19325
1017,"C1017","Colon",111,"Gral. Paz y Rivera Indarte",-31.41321,-64.18497
1018,"C1018","Olmos",263,"Alvear y Maipu",-31.41479,-64.18018
1021,"C1021","Illia",454,"Obispo Salguero y Parana",-31.42252,-64.1802
1024,"C1024","Sabattini",500,"Frente A.C.A.",-31.42742,-64.17216
1068,"C1068","Chacabuco",817,"Plaza España y Derqui",-31.42722,-64.18432
1069,"C1069","Chacabuco",556,"San Lorenzo y Rondeau",-31.4242,-64.18304
1074,"C1074","Paso de los Andes",270,"Caseros y Duarte Quiros",-31.41464,-64.20006
1075,"C1075","Paso de los Andes",535,"Montevideo y Aguilar",-31.41832,-64.20133
1076,"C1076","Paso de los Andes",832,"Laprida y Achaval Rodriguez",-31.42088,-64.20228
1080,"C1080","Sol de Mayo",1086,"Pueyrredon y Peredo",-31.4215,-64.21174
1081,"C1081","Peredo",2176,"Oca¤a y Haedo",-31.42134722,-64.21445
1082,"C1082","Peredo",2350,"Sipe y Punta Lara",-31.42088,-64.21646
1083,"C1083","Julian Aguirre",2400,"Punta Lara y Vieytes",-31.42301,-64.21723
1084,"C1084","Julian Aguirre",2520,"Olegario Correa y Echeverria",-31.42225,-64.2191
1085,"C1085","Julian Aguirre",2640,"Gilardi y Padre Lozano",-31.4219,-64.22093
1086,"C1086","Julian Aguirre",2750,"Blamey Lafore y Alte. Brown",-31.42171,-64.22198
1087,"C1087","Julian Aguirre",2890,"Espora y Leon Pinelo",-31.42125,-64.2242
1088,"C1088","Leon Pinelo",1100,"Ricardo Wagner y Peredo",-31.41972,-64.22451
1089,"C1089","Peredo",3100,"Schubert y Maestro Vidal",-31.41892,-64.22663
1090,"C1090","Peredo",3296,"Maldonado y Los Platanos",-31.41838,-64.22946
1091,"C1091","Albeniz",3300,"Los Platanos y Miguel Carcano",-31.41924,-64.22997
1092,"C1092","Albeniz",3510,"Gaona y Felix Paz",-31.41903,-64.23176
1093,"C1093","Albeniz",3678,"Ignacio Warnes y Gurruchaga",-31.41876,-64.23323
1094,"C1094","Gauna",1208,"Albeniz y Verdi",-31.41952,-64.23473
1095,"C1095","Gauna",1286,"Jose Verdi y Pascual de Rogatis",-31.42102,-64.23513
1096,"C1096","Warnes",1384,"Descalzi y Luis Agote",-31.42255,-64.23455
1097,"C1097","Iseas",1428,"Luis de Hoyos y Iramain",-31.42308,-64.23605
1098,"C1098","Iseas",1500,"Jacobo Golf y Rodrigo Pereyra",-31.42374,-64.23683
1100,"C1100","Maria Curie",1574,"Jose Fierro y Ñuflo de Chavez",-31.42534,-64.23851
1101,"C1101","Maria Curie",1618,"Uriburu y Williams",-31.42584,-64.23861
1102,"C1102","Williams",4176,"Fournier y Roque Arias",-31.426388,-64.24075
1103,"C1103","Agustin Roque Arias",1696,"Aviador Almonacid y Felix de Zuñiga",-31.42787,-64.24147
1104,"C1104","Agustin Roque Arias",1785,"Gonzalez Albarracin y Camilo Iseño",-31.42981,-64.24198
1105,"C1105","Agustin Roque Arias",1850,"Aviador Zanni y la Misma",-31.43127,-64.24237
1106,"C1106","Fuerza Aerea",4300,"Aviador Camilotti y Aviador Richardson",-31.43237,-64.2438
1107,"C1107","Fuerza Aerea",4570,"Aviador Abel y Aviador  Kingsley",-31.43252,-64.24608
1108,"C1108","Fuerza Aerea",4894,"Aviador Mira y Aviador Locatelli",-31.43278,-64.25008
1109,"C1109","Fuerza Aerea",5200,"Escuela de Suboficiales",-31.43307,-64.25555
1110,"C1110","Alto Alegre",2070,"a 30 metros de Fuerza Aerea",-31.43331,-64.26397
1111,"C1111","Alto Alegre",1696,"Candelaria y Aviador Almonacid",-31.42929,-64.26391
1112,"C1112","Alto Alegre",1600,"Aviador Almonacid y Carahue",-31.42721,-64.2639
1113,"C1113","Recalde",6294,"Alto Alegre y Asia",-31.42665,-64.26644
1114,"C1114","Rio Yuspe",1622,"Recalde y",-31.42707,-64.26839
1115,"C1115","Rio Yuspe",1672,"Recalde y Sin Datos",-31.42808,-64.26835
1116,"C1116","Rio Yuspe",,"Esquina Calle 53",-31.4301,-64.26837
1117,"C1117","Calle 4",,"Esquina 52",-31.43113,-64.27057
1118,"C1118","Calle 52",,"Esquina 5",-31.43184,-64.27108
1119,"C1119","Calle 5",,"Esquina 51",-31.432951,-64.274602
1120,"C1120","Principal Esc.Aviacion",,"51 y Fuerza Aerea",-31.434056,-64.274602
1121,"C1121","10 de Agosto",,"Gomez y Zanettini",-31.437579,-64.274547
1122,"C1122","10 de Agosto",,"Gomez y Zanettini",-31.43184,-64.27108
1123,"C1123","Lateral Esc.Aviacion",,"Frente Escuela de Aviación",-31.439178,-64.272165
1124,"C1124","Lateral Esc.Aviacion",,"Llegando a la Escuela de Aviación",-31.44125,-64.26852
1125,"C1125","Lateral Esc.Aviacion",,"Frente a la Escuela de Aviación",-31.44079,-64.26947
1126,"C1126","Lateral Esc.Aviacion",,"Llegando a la Escuela de Aviación",-31.43991,-64.27091
1127,"C1127","Principal Esc.Aviacion",,"Llegando a la Escuela de Aviación",-31.437579,-64.274407
1128,"C1128","Principal Esc.Aviacion",,"Fuerza Aerea y 51",-31.4322957,-64.273615
1129,"C1129","Calle 51",,"Frente Centro Civico",-31.43991,-64.27091
1130,"C1130","Calle 51",,"Esquina con 4",-31.43279,-64.27108
1131,"C1131","Calle 4",,"Esquina con 53",-31.43128,-64.2705
1132,"C1132","Calle 53",,"Esquina con Rio Yuspe",-31.43082,-64.26895
1133,"C1133","Rio Yuspe",1675,"Aviador Almonacid y Candelaria ",-31.42873,-64.26832
1134,"C1134","Rio Yuspe",,"Esquina con Recalde",-31.42669,-64.26831
1135,"C1135","Recalde",6270,"Asia y Sin Datos",-31.42668,-64.26605
1136,"C1136","Alto Alegre",1604,"Recalde y Aviador Almonacid",-31.42669,-64.26436
1137,"C1137","Alto Alegre",1696,"Aviador Almonacid y Candelaria",-31.42892,-64.2639
1138,"C1138","Fuerza Aerea",6000,"Frente Lockheed Martin",-31.43365,-64.26396
1139,"C1139","Fuerza Aerea",5200,"Frente Salida Escuela de Suboficiales",-31.43335,-64.25648
1140,"C1140","Fuerza Aerea",4927,"Circunvalacion y Aviador Locatelli",-31.433,-64.2507
1141,"C1141","Fuerza Aerea",4700,"Aviador Mira y Aviador Petirossi",-31.43283,-64.2484
1142,"C1142","Fuerza Aerea",4545,"Aviador Kingsley y Aviador Abel",-31.43272,-64.2467
1144,"C1144","Agustin Roque Arias",1808,"Aviador Zanni y Camilo Isleño",-31.43063,-64.24215
1145,"C1145","Agustin Roque Arias",1715,"Gonzalez Albarracin y Felix de Zuñiga",-31.4288,-64.24166
1146,"C1146","Agustin Roque Arias",1631,"Aviador Almonacid y Williams",-31.4269,-64.24116
1147,"C1147","Williams",4026,"Fournier y Maria Curie",-31.4266,-64.23944
1148,"C1148","Maria Curie",1579,"Arenales Uriburu y Ñuflo de Chavez",-31.42578,-64.23855
1149,"C1149","Iseas",1529,"Jose Manuel Fierro y Alberto Alcorta",-31.42491,-64.23818
1151,"C1151","Iseas",1403,"Luis de Hoyos y Luis Agote",-31.42292,-64.23574
1152,"C1152","Warnes",1388,"Nicolas Descalzi y Pascual de Rogatis",-31.4225,-64.23448
1153,"C1153","Pascual de Rogatis",3742,"Gurruchaga y Gauna",-31.42128,-64.23487
1154,"C1154","Gauna",1208,"Jorge Verdi y Albeniz",-31.41943,-64.23467
1155,"C1155","Albeniz",3721,"Gauna y Gurruchaga",-31.41858,-64.23425
1156,"C1156","Albeniz",3617,"Warnes y Felix Paz",-31.4188,-64.23315
1157,"C1157","Albeniz",3300,"Miguel Carcano y Los Platanos",-31.41932,-64.2305
1158,"C1158","Los Platanos",1228,"Albeniz y Verdi",-31.42043,-64.23027
1159,"C1159","Verdi",3200,"Maldonado y Comechingones",-31.42125,-64.22876
1160,"C1160","Verdi",3075,"Maestro Vidal y Schubert",-31.4212,-64.22771
1161,"C1161","Verdi",2907,"Enrique Granados y Leon Pinelo",-31.4216,-64.22553
1162,"C1162","Verdi",2805,"Leon Pinelo y Espora",-31.42201,-64.22342
1163,"C1163","Ceballos",2750,"Espora y Alte. Brown",-31.42285,-64.22312
1164,"C1164","Pascual de Rogatis",2651,"Blamey Lafore y Padre Lozano",-31.42359,-64.22187
1165,"C1165","Padre Lozano",1200,"Pascual de Rogatis y Julian Aguirre",-31.42234,-64.2212
1166,"C1166","Padre Lozano",1105,"Julian Aguirre y Peredo",-31.42025,-64.22065
1167,"C1167","Peredo",2465,"Olegario Correa y Pedro Goyena",-31.42056,-64.21845
1168,"C1168","Peredo",2311,"Punta Lara y SipeSipe",-31.42107,-64.21582
1169,"C1169","Peredo",2076,"Oca¤a e Ingeniero Lopez",-31.42139,-64.21414
1170,"C1170","Peredo",1811,"Ingeniero Lopez y Sol de Mayo",-31.42172,-64.21245
1171,"C1171","Peredo",1600,"Miguel Urrutia y Rio Negro",-31.42225,-64.20965
1178,"C1178","Caseros",813,"San Jose de Calazans y Artigas",-31.41497,-64.19612
1179,"C1179","Caseros",500,"Arturo M. Bas y Simon Bolivar",-31.41616,-64.19222
1180,"C1180","Caseros",223,"Belgrano y Velez Sarsfield",-31.41723,-64.18859
1197,"C1197","Vucetich",7693,"Lippman y Wolfgang Pauli",-31.465003,-64.080913
1198,"C1198","Vucetich",7607,"Pauli y Franck",-31.464968,-64.082076
1199,"C1199","Vucetich",7450,"Guillaume y Compton",-31.46504,-64.08396
1200,"C1200","Vucetich",7273,"Bequerel y Thompson",-31.46473,-64.08617
1206,"C1206","Vucetich",6305,"Diesel y Dalton",-31.46499,-64.09945
1207,"C1207","Vucetich",6100,"Taylor y Ruta 9",-31.46496,-64.10227
1212,"C1212","Sabattini",5400,"Delfin Huergo y Sin Datos",-31.45648,-64.11171
1217,"C1217","Sabattini",5025,"Croacia y Circunvalacion",-31.44669,-64.12165
1222,"C1222","Sabattini",4050,"Ucacha y Athos Pampa",-31.43324,-64.1336
1223,"C1223","Sabattini",3821,"Machado y Bancalari",-31.43235,-64.1363
1232,"C1232","Sabattini",1779,"Isasa y Ortiz Herrera",-31.4326,-64.16209
1245,"C1245","Castro Barros",443,"Europa y Palestina",-31.40136,-64.19634
1246,"C1246","Castro Barros",675,"Chaco y Zelaya",-31.39925,-64.19779
1250,"C1250","Caraffa",1896,"Pablo Cabrera y Obispo Pozo y Silva",-31.3905,-64.20425
1251,"C1251","Caraffa",2084,"Progreso y Juan de la Serna",-31.38968,-64.20693
1253,"C1253","Caraffa",2568,"Domingo Zipoli y Las Playas",-31.38763,-64.21334
1258,"C1258","Rafael Nuñez",3545,"Rodriguez del Busto y Mosco y Peralta",-31.37869,-64.22411
1261,"C1261","Rafael Nuñez",3832,"Virey del Pino y Emilio Petorutti",-31.37369,-64.22853
1266,"C1266","Rafael Nuñez",4525,"Martel de los Rios y Manuel Pizarro",-31.36547,-64.23527
1267,"C1267","Rafael Nuñez",4663,"Manuel Pizarro y Manuel Lopez",-31.363,-64.23692
1270,"C1270","Rafael Nuñez",5441,"Albano de Laberge y Parmenio Ferrer",-31.35363,-64.245
1274,"C1274","Ricardo Rojas",6870,"Frente C.P.C.",-31.34177,-64.25421
1275,"C1275","Ricardo Rojas",7000,"Ramon y Cajal y Poincare",-31.34039,-64.25656
1276,"C1276","Ricardo Rojas",7319,"Francisco Vidal y Heriberto Martinez",-31.33838,-64.25994
1277,"C1277","Heriberto Martinez",7339,"Ricardo Rojas y Carlos Andres",-31.33672,-64.26199
1278,"C1278","Heriberto Martinez",7119,"Carlos Andres y Jose Agusti",-31.33871,-64.26311
1279,"C1279","Heriberto Martinez",6851,"Sergio Camargo y Jose Morelos",-31.3416,-64.26378
1280,"C1280","Morelos",7544,"Mocovies y Guillermo Ostwald",-31.34181,-64.26539
1281,"C1281","Tomas Garzon",6872,"Manuel Montt y Nilo Pecanha",-31.34181,-64.26706
1282,"C1282","Sandoval",7705,"Tomas Garzon y German Busch",-31.34033,-64.26716
1283,"C1283","Sandoval",7830,"Antequera y Castro y Bartolome Solom",-31.34061,-64.26921
1293,"C1293","Bartolome Salom",6701,"Manuel Montt",-31.34205,-64.26936
1294,"C1294","Morelos",7704,"Bartolome Salom y Tomas Garzon",-31.34207,-64.26763
1295,"C1295","Morelos",7543,"Guillermo Ostwald y Mocovies",-31.34182,-64.26602
1296,"C1296","Morelos",7400,"Mocovies y Heriberto Martinez",-31.34185,-64.2644
1297,"C1297","Heriberto Martinez",7090,"Domingo Alvari¤os y Jose Agusti",-31.3396,-64.26325
1298,"C1298","Heriberto Martinez",7339,"Carlos Andres y Ricardo Rojas",-31.33733,-64.26264
1299,"C1299","Ricardo Rojas",7300,"Heriberto Martinez y Francisco Vidal",-31.3378,-64.26042
1300,"C1300","Ricardo Rojas",7000,"Poincare y Ramon y Cajal",-31.34023,-64.25695
1304,"C1304","Rafael Nuñez",6004,"Andres Piñero y Juan Perrin",-31.34758,-64.24985
1305,"C1305","Rafael Nuñez",5800,"Taravella y Angel Lo Celso",-31.34936,-64.24879
1311,"C1311","Rafael Nuñez",4515,"Manuel Pizarro y Jose Reynafe",-31.36533,-64.23554
1312,"C1312","Rafael Nuñez",4418,"De Los Rios y Gavier",-31.36698,-64.23443
1313,"C1313","Rafael Nuñez",4313,"Gavier y Jose Roque Funes",-31.36776,-64.23381
1316,"C1316","Rafael Nuñez",3911,"Roque Ferreyra y Beverina",-31.37354,-64.22887
1317,"C1317","Rafael Nuñez",3835,"Berrotaran y Arruabarrena",-31.37474,-64.22781
1318,"C1318","Rafael Nuñez",3770,"Arruabarrena y Perez de Herrera",-31.37697,-64.22586
1320,"C1320","Octavio Pinto",3257,"Correa y Javier Lopez",-31.38348,-64.22236
1324,"C1324","Caraffa",2529,"Las Playas y Domingo Zipoli",-31.38784,-64.21303
1327,"C1327","Caraffa",1875,"Obispo Pozo y Silva y Castro Barros",-31.39033,-64.20517
1329,"C1329","Castro Barros",1299,"6 de Julio y Jose Maria Galan",-31.39358,-64.20238
1333,"C1333","Castro Barros",415,"Santa Fe y Agustin Olmedo",-31.40109,-64.19667
1334,"C1334","Castro Barros",50,"12 de Octubre Avellaneda",-31.40445,-64.1946
1340,"C1340","San Juan",21,"Obispo Treje e Independencia",-31.42078,-64.18692
1341,"C1341","Illia",136,"Buenos Aires e Ituzaingo",-31.42145,-64.18434
1351,"C1351","Sabattini",2564,"San Pedro y Navarra",-31.43322,-64.15304
1352,"C1352","Sabattini",2700,"Juan Rodriguez y Ambrosio Funes",-31.43329,-64.1509
1367,"C1367","Sabattini",5700,"Luciano Torrent y Martin Zapata",-31.45781,-64.11051
1370,"C1370","Sabattini",6200,"Perello y Albizurri",-31.46315,-64.10495
1373,"C1373","Vucetich",6500,"Guillermo Harvey y Kelvin",-31.46503,-64.09737
1374,"C1374","Vucetich",6628,"Galileo y Guttenberg",-31.46505,-64.09506
1375,"C1375","Vucetich",6840,"Lavoser y Daguerre",-31.46504,-64.09339
1376,"C1376","Vucetich",7040,"Watt y Gramme",-31.46504,-64.09064
1377,"C1377","Vucetich",7178,"Westinghouse y Faraday",-31.46505,-64.08835
1380,"C1380","Vucetich",7693,"Barkla y Franck",-31.46519,-64.08228
1384,"C1384","Franck",5350,"Luis Broglie y Alfredo Nobel",-31.4629,-64.08223
1385,"C1385","Michelson",7510,"Barkla y Guillaume",-31.46217,-64.08327
1386,"C1386","Michelson",7610,"Compton y Bragg",-31.46217,-64.08437
1387,"C1387","Bragg",5181,"Laure y Capilla de Los Remedios",-31.46069,-64.0849
1388,"C1388","Cno C. de los Remedios",,"Frente Refineria",-31.45882,-64.08491
1390,"C1390","Cno C. de los Remedios",7000,"Watt y Mendez",-31.45831,-64.09104
1391,"C1391","Cno C. de los Remedios",6900,"Lavoisier y Hertz",-31.45837,-64.09339
1392,"C1392","Cno C. de los Remedios",6800,"Esquina con Santa Barbara",-31.45839,-64.09515
1393,"C1393","Cno C. de los Remedios",6500,"Los Cha¤ares y Los Espinillos",-31.45934,-64.09859
1394,"C1394","Cno C. de los Remedios",6250,"Los Espinillos y Vermouth",-31.46014,-64.10122
1395,"C1395","Vermouth",4897,"Godoy y Lavaysse",-31.45873,-64.10176
1396,"C1396","Vermouth",4703,"Gianantonio y Agustin Delgado",-31.45593,-64.10174
1397,"C1397","Baravalle",6063,"Vermouth y Marzano",-31.45515,-64.10344
1398,"C1398","Marzano",4750,"Baravalle",-31.45286,-64.10384
1399,"C1399","Publica Cuidad Evita",,"Frente Manzana 25",-31.45088,-64.10652
1400,"C1400","Publica Cuidad Evita",,"Frente Manzana 26",-31.45087,-64.10766
1401,"C1401","Publica Cuidad Evita",,"Esq. Manzana 26",-31.45004,-64.10794
1402,"C1402","Publica",,"Frente Comisaria",-31.44946,-64.11022
1403,"C1403","Publica Cuidad Evita",,"Frente Manzana 50",-31.44945,-64.11192
1404,"C1404","Publica Cuidad Evita",,"Frente Manzana 60",-31.45039,-64.11254
1405,"C1405","Huergo",4473,"Gorostiaga y Manuel Leiva",-31.45226,-64.11175
1406,"C1406","Leiva",5536,"Luciano Torrent y Martin Zapata",-31.45289,-64.11006
1407,"C1407","Zapata",4636,"Juan Llerena y Agustin Delgado",-31.4543,-64.10984
1415,"C1415","Sabattini",5125,"Cangallo y Croacia",-31.4488,-64.11933
1420,"C1420","Sabattini",4303,"Rayo Cortado y Tancacha",-31.43508,-64.13105
1423,"C1423","Sabattini",3691,"Acosta y Bajada Ferreyra",-31.43163,-64.13848
1424,"C1424","Sabattini",3300,"Frente Hiper Libertad",-31.43281,-64.14337
1446,"C1446","Chacabuco",257,"Corrientes y Entre Rios",-31.42053,-64.18145
1455,"C1455","Velez Sarsfield",230,"Caseros y Duarte Quiros",-31.41756,-64.1878
1476,"C1476","Sabattini",3154,"Jose Ignacio Gorriti y Hiper Libertad",-31.43338,-64.14566
1481,"C1481","Sabattini",4390,"Rayo Cortado y Totoralejos",-31.4359,-64.13045
1483,"C1483","Sabattini",4850,"Fiambala y Calingasta",-31.44035,-64.12754
1484,"C1484","Sabattini",5025,"Circunvalacion y Croacia",-31.44638,-64.12215
1485,"C1485","Sabattini",5100,"Croacia y Cangallo",-31.44862,-64.11985
1486,"C1486","Sabattini",5200,"Frente FIAT",-31.45163,-64.11683
1490,"C1490","Zapata",4565,"Delgado y Juan Llerena",-31.45491,-64.10983
1491,"C1491","Leiva",5415,"Juan Segui y Huergo",-31.45284,-64.11148
1492,"C1492","Manzana 60 Lote 11",,"Frente Manzana 60",-31.45078,-64.11219
1493,"C1493","Publica Cuidad Evita",,"Esquina Manzana 60",-31.44994,-64.1125
1494,"C1494","Publica Cuidad Evita",,"Frente Manzana 56",-31.44992,-64.1097
1495,"C1495","Publica Cuidad Evita",,"Frente Manzana 26",-31.44995,-64.10804
1496,"C1496","Publica Cuidad Evita",,"Frente Manzana 25",-31.4504,-64.10662
1497,"C1497","Marzano",,"Frente el Colegio",-31.45279,-64.10387
1498,"C1498","Marzano",4650,"Baravalle y el Colegio",-31.45445,-64.10385
1499,"C1499","Baravalle",6170,"Marzano y Vermouth",-31.45532,-64.10232
1500,"C1500","Wermuth",4816,"Ferre y Gonzalez",-31.45686,-64.1018
1501,"C1501","Wermuth",5050,"Godoy y Camino Capilla de los Remedios",-31.45938,-64.10182
1502,"C1502","Cno C. de los Remedios",6284,"Virasoro y Los Espinillos",-31.46009,-64.10095
1503,"C1503","Cno C. de los Remedios",6500,"Los Espinillos y Los Chañares",-31.45945,-64.09875
1504,"C1504","Cno C. de los Remedios",6570,"Los Chañares y Los Piquillines",-31.4588,-64.09659
1505,"C1505","Cno C. de los Remedios",6670,"Los Piquillines y Santa Barbara",-31.45848,-64.0955
1506,"C1506","Cno C. de los Remedios",6800,"Santa Barbara y Lavoisier",-31.4584,-64.0936
1508,"C1508","Cno C. de los Remedios",,"Stephenson y Faraday",-31.45837,-64.08786
1511,"C1511","Publica",,"Bragg y Guillaume",-31.46104,-64.0839
1512,"C1512","Publica",,"Brakla y Franck",-31.46103,-64.08278
1513,"C1513","Franck",5351,"Nobel y Broglie",-31.46278,-64.08229
1514,"C1514","Franck",5462,"Millikan y Vucetich",-31.46473,-64.0823
1526,"C1526","Chacabuco",835,"Plaza España y Derqui",-31.42722,-64.1843
1531,"C1531","Fragueiro",329,"Santa Rosa y La Rioja",-31.40978,-64.19216
1533,"C1533","Castro Barros",58,"Avellaneda y Ramirez de Velazco",-31.40506,-64.19398
1537,"C1537","Castro Barros",1224,"Galan y Tambo Nuevo",-31.39449,-64.20187
1538,"C1538","Castro Barros",1527,"6 de Julio y Copacabana",-31.39231,-64.20302
1544,"C1544","Caraffa",2930,"Luis Galeano y Pedroni",-31.38626,-64.21765
1548,"C1548","Rafael Nuñez",3686,"De Angelis y Perez de Herrera",-31.37646,-64.2261
1552,"C1552","Rafael Nuñez",4088,"Juan Battle Planas y Gregorio Laferrere",-31.37099,-64.2309
1554,"C1554","Rafael Nuñez",4352,"Jose Roque Funes y Gregorio Gavier",-31.36786,-64.23353
1558,"C1558","Laplace",5800,"Blas Pascal y Mariotte",-31.35804,-64.24172
1559,"C1559","Laplace",5600,"Mariotte y Gaty Lussac",-31.35941,-64.24476
1560,"C1560","Laplace",5390,"Jose Luis Lagrange y Dalembert",-31.36127,-64.24882
1561,"C1561","Laplace",5229,"Dalembert y Olmos",-31.36218,-64.25075
1563,"C1563","Gauss",5291,"Olmos y Dalembert",-31.3614,-64.25283
1564,"C1564","Gauss",5500,"Lagrange y Joule",-31.35909,-64.25189
1565,"C1565","Gauss",5679,"Gay Lussac y Mariotte",-31.35682,-64.25098
1566,"C1566","Gauss",5824,"Blas Pascal y Avogadro",-31.35501,-64.25022
1567,"C1567","Gauss",5968,"Avogadro y Martinolli",-31.3528,-64.249407
1568,"C1568","Martinolli",5900,"Locelso y Taravella",-31.35076,-64.2506
1569,"C1569","Martinolli",6200,"Aston y Nepper",-31.349312,-64.25277
1570,"C1570","Martinolli",6700,"Lasalle y Ferreyra",-31.34824,-64.25652
1571,"C1571","Martinolli",6894,"Hopkins y Cajal",-31.34804,-64.25926
1572,"C1572","Martinolli",7092,"Cajal y Fernando Braun",-31.34789,-64.2616
1573,"C1573","Martinolli",7258,"Laveran y Heriberto Martinez",-31.34775,-64.2638
1574,"C1574","Martinolli",7714,"Tomas Garzon y Richard",-31.34751,-64.26763
1575,"C1575","Martinolli",7894,"Albert Sabin y Barany",-31.347274,-64.271451
1576,"C1576","Martinolli",8124,"Buitrago y Curaquen",-31.347136,-64.273857
1577,"C1577","Martinolli",8200,"Curaquen y Yupanqui",-31.347008,-64.276121
1578,"C1578","Martinolli",8360,"Viracocha y Carolina",-31.34683,-64.27832
1579,"C1579","Martinolli",8530,"Carolina y Alberione",-31.34665,-64.28124
1580,"C1580","Martinolli",8720,"Alberione y La Gilda",-31.34592,-64.28398
1581,"C1581","Martinolli",8831,"San Pedro Nolasco y Pasasje C",-31.3446,-64.28637
1582,"C1582","Martinolli",8870,"Pasaje C y Diaz Caballero",-31.34385,-64.28772
1583,"C1583","Martinolli",8928,"Correa y Villegas",-31.34294,-64.28893
1584,"C1584","Manuel de Falla",,"Arias y Vinter = Almaceneros",-31.34054,-64.29024
1585,"C1585","Manuel de Falla",7210,"Vinter y Vazquez = Almaceneros",-31.33849,-64.29022
1586,"C1586","Manuel de Falla",7444,"Vazquez y Ricardo Rojas = Almaceneros",-31.33661,-64.29016
1587,"C1587","Ricardo Rojas",9100,"Manuel de Falla y Seeber = Almaceneros",-31.33495,-64.2918
1588,"C1588","Ricardo Rojas",9250,"Seeber y Bruzone = Almaceneros",-31.33262,-64.29275
1589,"C1589","Ricardo Rojas",9370,"Ausonia y Laborde = Almaceneros",-31.32981,-64.29443
1590,"C1590","Ricardo Rojas",9511,"Arroyito y Los Reartes = Almaceneros",-31.32893,-64.29723
1591,"C1591","Ricardo Rojas",9630,"San Marcos Sierra y Jamaica",-31.32846,-64.29936
1592,"C1592","Ricardo Rojas",6846,"San Salvador y Jamaica",-31.32809,-64.301
1593,"C1593","Ricardo Rojas",9985,"Ricardo Rojas esq. Jamaica",-31.32731,-64.30277
1594,"C1594","Ricardo Rojas",9985,"Ricardo Rojas esq. Jamaica",-31.32731,-64.30277
1595,"C1595","Ricardo Rojas",9849,"Jamaica y San Salvador",-31.32799,-64.30155
1596,"C1596","Ricardo Rojas",9670,"Bell Ville y San Marcos Sierras",-31.32852,-64.29923
1597,"C1597","Ricardo Rojas",9500,"San Marcos Sierras y Los Reartes  ",-31.32891,-64.29748
1598,"C1598","Ricardo Rojas",9370,"Laborde y Ausonia = Almaceneros",-31.32967,-64.29486
1599,"C1599","Ricardo Rojas",9250,"Ausonia y Bruzone = Almaceneros",-31.33213,-64.29284
1600,"C1600","Ricardo Rojas",9100,"Bruzone y Seeber = Almaceneros",-31.33456,-64.29219
1601,"C1601","Manuel de Falla",7388,"Ricardo Rojas y Vinter = Almaceneros",-31.33618,-64.29028
1602,"C1602","Manuel de Falla",7300,"Ricardo Rojas y Vinter = Almaceneros",-31.33711,-64.2903
1603,"C1603","Manuel de Falla",7100,"Vinter y Arias = Almaceneros",-31.33897,-64.29037
1604,"C1604","Manuel de Falla",6863,"Vinter y Arias = Almaceneros",-31.33991,-64.29036
1605,"C1605","Entrada Warcalde",,"Manuel de Falla y Zanon = Warcalde",-31.34097,-64.29087
1606,"C1606","Zanon",9128,"Molino de Torres y Algarrobo",-31.34117,-64.29352
1607,"C1607","Zanon",9300,"Los Algarrobos y De la Capilla",-31.34023,-64.29478
1608,"C1608","Zanon",9468,"De la Capilla y Quintas de Cremader",-31.3391,-64.29629
1609,"C1609","Zanon",9695,"La Gargola y Eloy Martinez",-31.3376,-64.2992
1610,"C1610","Zanon",9963,"Pje Aguaducho y De la Aguada",-31.33567,-64.3029
1611,"C1611","Zanon",,"De la Aguada y Alto Hermoso",-31.33455,-64.30474
1612,"C1612","Zanon",,"Esquina con Ricardo Santos = Warcalde",-31.33345,-64.30656
1613,"C1613","Ricardo Santos",,"Angualasto y Pampa de los Guanacos",-31.33461,-64.3098
1614,"C1614","Ricardo Santos",,"Pampas de los Guanacos y Agualasto",-31.33461,-64.3098
1615,"C1615","Ricardo Santos",,"Esquina con Zanon = Warcalde",-31.33333,-64.30745
1616,"C1616","Zanon",10100,"Los Parlamentos y De la Aguada = Warcald",-31.3339,-64.30591
1617,"C1617","Zanon",9931,"De la Aguada y Pje. Aguaducho",-31.33581,-64.30278
1618,"C1618","Zanon",9695,"Eloy Martinez y Sin Datos = Warcalde",-31.33752,-64.29996
1619,"C1619","Zanon",9500,"Frente Ex Banco Hipotecario Nacional",-31.33836,-64.29742
1620,"C1620","Zanon",9400,"Quintas de Cremader y De la Capilla",-31.33931,-64.29611
1621,"C1621","Zanon",9121,"Monseños D'amico y Molino Viejo",-31.34091,-64.29396
1622,"C1622","Salida Warcalde",,"Esquina Manuel de Falla = Warcalde",-31.34103,-64.29099
1623,"C1623","Martinolli",8911,"Manuel de Falla y Doering",-31.3427,-64.28934
1624,"C1624","Martinolli",8819,"Di Francia y San Pedro Nolasco",-31.3445,-64.28675
1625,"C1625","Martinolli",8711,"La Gilda y Padre Santiago Alberione",-31.34584,-64.28436
1626,"C1626","Martinolli",8500,"Padre Santiago Alberione y Carolina",-31.34669,-64.2817
1627,"C1627","Martinolli",8300,"Enquen y Viracocha",-31.34691,-64.27829
1628,"C1628","Martinolli",8156,"Yupanqui y Curaquen",-31.347061,-64.275705
1629,"C1629","Martinolli",8105,"Curaquen y Biutrago",-31.347178,-64.273731
1630,"C1630","Martinolli",7900,"Barany y Sabin",-31.34737,-64.27111
1631,"C1631","Martinolli",7707,"Richards y Garzon",-31.34751,-64.26821
1632,"C1632","Martinolli",7415,"Ostwald y Heriberto Martinez",-31.34767,-64.26595
1633,"C1633","Martinolli",7095,"Fernando Braun y Edison",-31.34797,-64.26184
1634,"C1634","Martinolli",6939,"Cajal y Spemann",-31.34805,-64.26033
1635,"C1635","Martinolli",6675,"Ferreyra y Lasalle",-31.34828,-64.25691
1636,"C1636","Martinolli",6200,"Chagas y Neper",-31.34906,-64.2536
1637,"C1637","Martinolli",5900,"Tyvho Brahe y Branly",-31.35027,-64.25129
1638,"C1638","Gauss",5975,"Martinolli y Avogadro",-31.35246,-64.24928
1639,"C1639","Gauss",5824,"Avogadro y Pascal",-31.35466,-64.25017
1640,"C1640","Gauss",5713,"Pascal y Mariotte",-31.35599,-64.25072
1641,"C1641","Gauss",5527,"Gay Lussac y Joule",-31.35817,-64.2516
1642,"C1642","Gauss",5341,"Lagrange y Dalambert",-31.36048,-64.25252
1643,"C1643","Gauss",5055,"Boyle y Berzelius",-31.36319,-64.25357
1644,"C1644","Papin",5054,"Berzelius y Laplace",-31.36408,-64.25276
1645,"C1645","Laplace",5184,"Papin y Fresnel",-31.36241,-64.25099
1646,"C1646","Laplace",5419,"Henry y Lineo",-31.36122,-64.24866
1647,"C1647","Laplace",5525,"Berthelot y Julio Vernes",-31.36014,-64.24605
1648,"C1648","Laplace",5700,"Gay Lussac y Mariotte",-31.35903,-64.24359
1649,"C1649","Laplace",5800,"Mariotte y Jeronimo Cardan",-31.35837,-64.24217
1653,"C1653","Rafael Nuñez",4431,"De los Rios y Gavier",-31.36694,-64.23444
1660,"C1660","Rafael Nuñez",3660,"Jose Otero y Orma",-31.37808,-64.22483
1663,"C1663","Caraffa",2935,"Octavio Pinto y Galeano",-31.38602,-64.21851
1669,"C1669","Castro Barros",1527,"Copacabana y 6 de Julio",-31.39193,-64.20331
1672,"C1672","Castro Barros",965,"Bialet Masse y Neuquen",-31.39652,-64.20037
1674,"C1674","Castro Barros",417,"Santa Fe y Coronel Olmedo",-31.40118,-64.19656
1681,"C1681","Hipolito Irigoyen",57,"San Juan y Montevideo",-31.42101,-64.18849
1682,"C1682","Hipolito Irigoyen",175,"Obispo Trejo y San Luis",-31.42281,-64.18756
1697,"C1697","Borda",,"Ornstein y Revello",-31.31725,-64.26032
1698,"C1698","Furlong",9053,"Borda y Ibarguren",-31.31725,-64.2591
1699,"C1699","Furlong y Yaven",8960,"Ibarguren y Sin Datos",-31.31848,-64.25827
1700,"C1700","Yaben",6900,"Furlong y Revello",-31.3201,-64.25715
1703,"C1703","Pizzolatto",7036,"Menditeguy y Giannini",-31.32191,-64.25813
1704,"C1704","Pizzolatto",7144,"Gianini y Hnos Grimm",-31.32138,-64.25965
1705,"C1705","Malalco",7050,"Pizzolatto y Pillahuenu",-31.32137,-64.26108
1706,"C1706","Malalco",7184,"Chapisgasta y Tabacue",-31.32212,-64.26251
1707,"C1707","Malalco",7350,"Kawall y Matra",-31.32313,-64.26449
1708,"C1708","Malalco",7288,"Liencura y Fangio",-31.32387,-64.26594
1709,"C1709","Fangio",8350,"Wieland y Miguel Marin",-31.32536,-64.26563
1710,"C1710","Beta",7405,"Fagio y Artagoveitia",-31.32566,-64.26404
1711,"C1711","Beta",7164,"Carlos Lusso y Fabio Pessatti",-31.32559,-64.26015
1712,"C1712","Massetti",8260,"Bizio y Risatti",-31.32648,-64.26023
1713,"C1713","Massetti",8152,"Risatti y Cubillos",-31.32818,-64.26113
1714,"C1714","Massetti",8071,"Cubillos y Benajele",-31.32905,-64.26157
1715,"C1715","Massetti",7955,"Benajele y Cordoba",-31.33045,-64.26232
1716,"C1716","Donato Alvarez",7500,"Milone y Pozo de la Loma",-31.33322,-64.26232
1717,"C1717","Donato Alvarez",7413,"Frente Arguello Junior",-31.33594,-64.2618
1719,"C1719","Donato Alvarez",7139,"Descotte y Blas Pascal",-31.33867,-64.25731
1720,"C1720","Rafael Nuñez",6500,"Frente CPC",-31.34107,-64.25465
1728,"C1728","Rafael Nuñez",4775,"Avila y Zarate y Candonga",-31.36041,-64.23854
1732,"C1732","Rafael Nuñez",4300,"Gavier y Jose Roque Funes",-31.36809,-64.23352
1737,"C1737","Rafael Nuñez",3660,"Perez de Herrera y de Angelis",-31.37685,-64.22593
1744,"C1744","Caraffa",2313,"Alonso de Rivera y Juan Posse",-31.38868,-64.2104
1745,"C1745","Caraffa",2051,"Juan de la Serna y Progreso",-31.38962,-64.20742
1749,"C1749","Castro Barros",1125,"Galan y Bialet Masse",-31.39541,-64.2014
1756,"C1756","Colon",445,"Jujuy y Sucre",-31.41183,-64.18932
1858,"C1858","Castro Barros",987,"Matias Zapiola y Gutierrez de Ceballos",-31.39686,-64.19981
1863,"C1863","Caraffa",2253,"Julian Paz y Juan Posse",-31.388804,-64.209579
1868,"C1868","Octavio Pinto",3285,"Javier Lopez y Sagrada Familia",-31.38318,-64.22251
1873,"C1873","Rafael Nuñez",3964,"Juan Castagnino y Juan Battle Planas",-31.37224,-64.2298
1875,"C1875","Rafael Nuñez",4250,"Del Campillo y Gigena",-31.36906,-64.23251
1879,"C1879","Rafael Nuñez",4832,"Avila y Zarate y Barranca Yaco",-31.36024,-64.23848
1884,"C1884","Rafael Nuñez",6330,"Santos Nuñez y Bracamonte",-31.34437,-64.25167
1885,"C1885","Rafael Nuñez",6500,"Frente CPC",-31.34149,-64.25389
1889,"C1889","Massetti",7964,"Fage y Bejanele",-31.33124,-64.26231
1890,"C1890","Massetti",8068,"Bejanele y Cubillos",-31.32939,-64.26168
1891,"C1891","Massetti",8194,"Cubillos y Risatti",-31.32829,-64.26113
1892,"C1892","Massetti",8297,"Risatti y Chapisgasta",-31.32648,-64.26019
1893,"C1893","Beta",7180,"Chapisgasta y Tabacue",-31.32555,-64.26023
1894,"C1894","Beta",7438,"Artajoveitia y Miguel Marin",-31.32561,-64.26412
1895,"C1895","Fangio",8500,"Beta y Malalco",-31.32453,-64.26625
1896,"C1896","Malalco",7300,"Mancol y Matra",-31.3236,-64.26536
1897,"C1897","Malalco",7200,"Llancaquen y Tabacue",-31.32259,-64.26339
1898,"C1898","Malalco",7050,"Pe¤i y Pillahuenu",-31.32186,-64.26199
1899,"C1899","Pizzolatto",7114,"Malalco y Giannini",-31.32126,-64.26012
1900,"C1900","Pizzolatto",7000,"Giannini y Menditeguy",-31.32178,-64.25858
1901,"C1901","Pizzolatto",6915,"Menditeguy y Ortega",-31.32231,-64.25704
1903,"C1903","Revello",8814,"Marimon y Yaben",-31.32031,-64.25778
1904,"C1904","Ornstein",8931,"Sin Datos y Ibarguren",-31.31934,-64.25918
1905,"C1905","Borda",,"Final",-31.31765,-64.26033
1909,"C1909","Mutual Policia",,"Esq. Cauque",-31.31392,-64.26182
1910,"C1910","Cauque",,"Frente Manzana 81",-31.31279,-64.26025
1911,"C1911","Cauque",,"Frente Manzana 104",-31.31231,-64.25933
1912,"C1912","Publica Policial",,"Frente Manzana 104",-31.31329,-64.25827
1913,"C1913","Publica Policial",,"Frente Manzana 105",-31.31489,-64.25721
1914,"C1914","Publica Policial",,"Frente Manzana 246",-31.31413,-64.25527
1915,"C1915","Publica Policial",,"Esq. Manzana 246",-31.3139,-64.25481
1916,"C1916","Ibarguren",,"3 Cuadras antes de Peña",-31.3154,-64.25465
1917,"C1917","Publica Policial",,"Frente Manzana 4",-31.31694,-64.25473
1918,"C1918","Peña",,"Tomasini y Yaben",-31.31851,-64.25476
1919,"C1919","Peña",,"Llegando a Marimon",-31.32017,-64.25362
1920,"C1920","Marimon",6746,"Calviño y Manuel Bordeu",-31.32061,-64.25431
1922,"C1922","Ortega",8650,"Esquina Pizzolatto",-31.32186,-64.25638
1923,"C1923","Pizzolatto",6820,"Ortega y Sin Datos",-31.32285,-64.25559
1925,"C1925","Calviño",8365,"Ernesto Bossola y Ovides",-31.32573,-64.25413
1930,"C1930","Fermin Martin",7850,"Bejanele y Bejanele",-31.3315,-64.2469
1939,"C1939","Los Alemanes",5831,"Della Paolera y Lo Celso",-31.34337,-64.24331
1941,"C1941","Potel Junot",6751,"Elkin y Oddone",-31.34525,-64.24202
1942,"C1942","Potel Junot",6551,"Carlos Claro y Alfredo Voglino",-31.34675,-64.24344
1943,"C1943","Potel Junot",6459,"Carlos Aubone y Belisario Caraffa",-31.34784,-64.24446
1944,"C1944","Potel Junot",6100,"Pje. Potel Junot y Rafael Nuñez",-31.351,-64.24716
1949,"C1949","Rafael Nuñez",4653,"Hugo Wast y Felix Garzon",-31.36305,-64.23708
1951,"C1951","Rafael Nuñez",4481,"Reinafe y Gavier",-31.36715,-64.23431
1956,"C1956","Rafael Nuñez",3828,"Berrotaran y Arruabarrena",-31.37483,-64.22772
1958,"C1958","Rafael Nuñez",3567,"Jose Otero y Orma",-31.37825,-64.22472
1971,"C1971","Castro Barros",617,"Brandsen y Chaco",-31.39936,-64.19782
1978,"C1978","Velez Sarsfield",254,"Caseros y Duarte Quiros",-31.41766,-64.18775
1982,"C1982","Illia",560,"Balcarce y Transito Caceres",-31.42297,-64.17829
1989,"C1989","Sabattini",2330,"Cataluña y Murcia",-31.43321,-64.15529
1994,"C1994","Sabattini",3300,"Frente Hiper Libertad",-31.43307,-64.14357
2034,"C2034","Sabattini",5515,"Martin Zapata y Luciano Torrent",-31.45801,-64.11012
2036,"C2036","Sabattini",5375,"Frente Fiat Auto Argentina",-31.45509,-64.1131
2045,"C2045","Ramos Mejia",2535,"Fiambala y Andalgala",-31.43859,-64.1234
2050,"C2050","Sabattini",4417,"Simbolar y Totoralejos",-31.43673,-64.12935
2059,"C2059","Sabattini",2400,"Guillermo Marconi y Da Vinci",-31.43296,-64.15376
2061,"C2061","Sabattini",1923,"Barcelona e Issasa",-31.43299,-64.15948
2071,"C2071","Corro",73,"27 de Abril y Dean Funes",-31.41436,-64.19392
2089,"C2089","Rafael Nuñez",3692,"De Angelis y Perez de Herrera",-31.37645,-64.22608
2102,"C2102","Potel Junot",6482,"Belisario Caraffa y Aubone",-31.34812,-64.2446
2103,"C2103","Potel Junot",6582,"Voglino y Carlos Claro",-31.34663,-64.24324
2105,"C2105","Potel Junot",6900,"Elkin y Los Alemanes",-31.34368,-64.24188
2106,"C2106","Los Alemanes",5890,"Lo Celso y Della Paolera",-31.34332,-64.24288
2107,"C2107","Taravella",,"Esquina con Toledo",-31.34222,-64.243559
2108,"C2108","Toledo",6880,"Frente Hogas San Camilo",-31.34217,-64.24506
2109,"C2109","Toledo",7036,"Esquina con S. Funes",-31.34058,-64.24365
2110,"C2110","IPV Raul Ferreyra",,"Manzana G Lote 3",-31.33984,-64.24424
2111,"C2111","Gritti",,"Esquina con Fermin Martin",-31.33743,-64.24585
2112,"C2112","Fermin Martin",7500,"Riganti y Redelico",-31.33577,-64.24651
2113,"C2113","Fermin Martin",7700,"Pasciuli y Fage",-31.33386,-64.24635
2114,"C2114","Fermin Martin",7900,"Fage y Bejanele",-31.33245,-64.24636
2116,"C2116","Cabalen",6400,"Fermin Martin y Sesarego",-31.32926,-64.24834
2117,"C2117","Cabalen",6626,"Tristany y Calviño",-31.32931,-64.25236
2122,"C2122","Pizzolatto",6757,"Calvi¤o y Sin Datos",-31.3233,-64.25421
2124,"C2124","Ortega",8700,"Roatta y Marimon",-31.32119,-64.25641
2126,"C2126","Marimon",,"M. Calviño y Peña",-31.32062,-64.25366
2127,"C2127","Publica",,"Frente Colegio Artemio Aran",-31.31888,-64.25444
2128,"C2128","Peña",,"Yaben y Tomassini",-31.31802,-64.25505
2129,"C2129","Publica Coop. 16 Nov",,"Frente Manzana 7 ",-31.31709,-64.25436
2130,"C2130","Publica Coop. 16 Nov",,"Fremte Manzana 171 ",-31.31644,-64.25364
2131,"C2131","Publica Coop. 16 Nov",,"Frente Manzana 171 Lote 4",-31.31561,-64.25377
2132,"C2132","Publica Coop. 16 Nov",,"Frente Manzana 179 ",-31.31467,-64.25411
2133,"C2133","Publica Coop. 16 Nov",,"Frente Manzana 243 ",-31.31425,-64.25441
2134,"C2134","Publica Coop. 16 Nov",,"Frente Manzana 240 ",-31.31425,-64.25441
2135,"C2135","Manzana 240 Lote 2",,"Sin Datos",-31.31425,-64.25441
2136,"C2136","Publica Coop. 16 Nov",,"Frente Manzana 232 ",-31.31261,-64.25871
2137,"C2137","Publica Coop. 16 Nov",,"Frente Manzana 80 ",-31.3126,-64.25994
2138,"C2138","Cauque",,"Cauque esq Publica",-31.31356,-64.2619
2143,"C2143","Amuchastegui",5860,"Borda y Pje. Publico",-31.31669,-64.2573
2144,"C2144","Amuchastegui",,"Pje Publico y J. Yaben",-31.31837,-64.25616
2145,"C2145","Amuchastegui",,"Frente Manzana 162  Esquina Marimon",-31.32042,-64.25477
2146,"C2146","Ortega",8774,"Marimon y Roatta",-31.32116,-64.25644
2148,"C2148","Pizzolatto",6821,"Ortega y Sin Datos",-31.32275,-64.25588
2149,"C2149","Calviño",8489,"Esquina Gussi",-31.32392,-64.25402
2150,"C2150","Calviño",8287,"Bossola y Ovides",-31.32582,-64.25411
2151,"C2151","Calviño",8200,"Ovides y Patria",-31.32721,-64.2541
2152,"C2152","Calviño",8113,"Anticaglia y Cabalen",-31.32865,-64.25411
2153,"C2153","Cabalen",6600,"Calviño y Tristany",-31.32936,-64.25252
2154,"C2154","Cabalen",6400,"Sesarego y Fermin Martin",-31.32932,-64.24898
2155,"C2155","Fermin Martin",8100,"Cabalen y Calle Publica",-31.32929,-64.24726
2157,"C2157","Fermin Martin",7700,"Fage y Pasciuli",-31.33376,-64.24641
2158,"C2158","Fermin Martin",7507,"Pasciuli y Riganti",-31.33518,-64.24655
2159,"C2159","Fermin Martin",7335,"Esquina Gritto",-31.33703,-64.24655
2166,"C2166","Potel Junot",6885,"Los Alemanes y",-31.34337,-64.24199
2169,"C2169","Potel Junot",6459,"Carlos Aubone y Belisario Caraffa",-31.3485,-64.24501
2172,"C2172","Rafael Nuñez",5471,"Pappin y Parmenio Ferrer",-31.35315,-64.24571
2174,"C2174","Martinolli",5185,"Astrada Ponce y Bunsen",-31.35693,-64.24314
2175,"C2175","La Cordillera",4841,"El Gaucho y Andres Blanqui",-31.35892,-64.23706
2176,"C2176","La Cordillera",4711,"Martin Fierro y Candonga",-31.35958,-64.23555
2177,"C2177","La Cordillera",4535,"Leopoldo Buteler y Pizarro",-31.36089,-64.23254
2178,"C2178","La Cordillera",4249,"Obispo Mercadillo y Martel de los Rios",-31.36218,-64.22959
2179,"C2179","La Cordillera",4113,"Martel de los Rios y Gavier",-31.36281,-64.2281
2180,"C2180","La Cordillera",4027,"Bernardo Capdevilla y Jose Roque Funes",-31.36325,-64.22713
2181,"C2181","La Cordillera",3719,"Loaysa y Varela",-31.36456,-64.22409
2182,"C2182","La Cordillera",3447,"Laferrere y Rodriguez del Busto",-31.36562,-64.22161
2183,"C2183","Rodriguez del Busto",3627,"Guttero y Battle Planas",-31.36852,-64.22117
2184,"C2184","Rodriguez del Busto",3219,"Alfredo Guido y Castagnino",-31.37097,-64.22171
2185,"C2185","Rodriguez del Busto",3047,"Posse y Viola",-31.37238,-64.22202
2186,"C2186","Rodriguez del Busto",2753,"Montenegro y Malvino",-31.37567,-64.22273
2187,"C2187","Rodriguez del Busto",2362,"Goicoechea y Rafael Nuñez",-31.37816,-64.22331
2190,"C2190","Caraffa",2939,"Octavio Pinto y Luis Galeano",-31.38611,-64.21831
2191,"C2191","Caraffa",2717,"Armendariz y Claudio Cuenca",-31.387,-64.21557
2204,"C2204","Colon",731,"Urquiza y Fragueiro",-31.41054,-64.19293
2206,"C2206","Gral. Paz",7,"9 de Julio y Dean Funes",-31.41484,-64.18665
2224,"C2224","Punilla",2200,"Sabattini y Caucete",-31.43273,-64.13439
2225,"C2225","Punilla",2017,"Cabalango y Quilino",-31.43074,-64.13174
2228,"C2228","Sacanta",1228,"Las Arrias y Guandacol",-31.43026,-64.12771
2229,"C2229","Junin",4667,"Chamical y Soto",-31.42981,-64.12561
2230,"C2230","Junin",4900,"Pichanas y Ramos Mejia",-31.42978,-64.12396
2231,"C2231","Junin",5100,"Mario Bravo y Callao",-31.42975,-64.12065
2232,"C2232","Cangallo",1838,"Junin y Rosales",-31.43014,-64.11927
2233,"C2233","Cangallo",2068,"Ariza y Arroyo",-31.43253,-64.11927
2234,"C2234","Cangallo",2244,"Serrezuela y Medrano",-31.43442,-64.11924
2235,"C2235","Medrano",5117,"Cangallo y Callao",-31.4353,-64.12004
2236,"C2236","Madrano",4915,"Mario Bravo y Ramos Mejia",-31.43537,-64.12293
2237,"C2237","Ramos Mejia",2485,"Talacasto y Tinogasta",-31.43703,-64.12347
2240,"C2240","Calingasta",5381,"Boedo y  Almagro",-31.441031,-64.11737
2241,"C2241","Publica",,"Esquina con Calingasta",-31.44109,-64.11382
2246,"C2246","Publica IPV Cno V. Pose",,"Sobre la Manzana 29",-31.4466,-64.11109
2247,"C2247","Publica IPV Cno V. Pose",,"Sobre la Manzana 31",-31.4464,-64.10929
2248,"C2248","Publica IPV Cno V. Pose",,"Sobre la Manzana 26",-31.44541,-64.10929
2249,"C2249","Publica IPV Cno V. Pose",,"Sobre la Manzana 21",-31.44446,-64.1093
2250,"C2250","Publica IPV Cno V. Pose",,"Sobre la Manazana 11",-31.44251,-64.10926
2251,"C2251","Publica IPV Cno V. Pose",,"Sobre la Manzana 3",-31.44176,-64.11029
2252,"C2252","Tulumba",,"Esquina Calingasta",-31.44133,-64.11103
2262,"C2262","Ramos Mejia",2400,"Tinogasta y Talacasto",-31.43657,-64.12345
2263,"C2263","Medrano",4950,"Ramos Mejia y Mario Bravo",-31.43536,-64.12288
2264,"C2264","Medrano",5083,"Mario Bravo y Callao",-31.43532,-64.12056
2265,"C2265","Cangallo",2211,"Medrano y Serrezuela",-31.43483,-64.11921
2266,"C2266","Cangallo",2012,"Arroyo y Ariza",-31.4323,-64.11924
2267,"C2267","Cangallo",1814,"Rosales y Junin",-31.43032,-64.11927
2268,"C2268","Junin",5004,"Callao y Mario Bravo",-31.42975,-64.12149
2269,"C2269","Junin",4850,"Ramos Mejia y Pichanas",-31.42975,-64.12377
2270,"C2270","Junin",4525,"Emilio Salgari y Guandacol",-31.42978,-64.12671
2271,"C2271","Guandacol",1915,"Rosales y Las Arrias",-31.43087,-64.1272
2272,"C2272","Tancacha",1894,"Guandacol y Pascanas",-31.43201,-64.12793
2273,"C2273","Pascanas",4123,"Sacanta y Ucacha",-31.43111,-64.12915
2274,"C2274","Pascanas",4000,"Athos Pampa y Punilla",-31.43004,-64.13026
2275,"C2275","Punilla",2078,"Quilino y Cavalango",-31.43093,-64.13208
2276,"C2276","Punilla",2217,"Caucete y Sabattini",-31.43221,-64.13381
2280,"C2280","Sabattini",3165,"Hiper Libertad y Gorriti",-31.43316,-64.14543
2287,"C2287","Sabattini",1625,"Unamuno y Benavente",-31.43159,-64.16397
2292,"C2292","San Jeronimo",483,"Parana y Obispo Salguero",-31.41908,-64.17799
2293,"C2293","27 de Abril",50,"Frente Catedral",-31.41696,-64.18486
2308,"C2308","Caraffa",2786,"Claudio Cuenca y Gato y Mancha",-31.38683,-64.21577
2309,"C2309","Caraffa",2934,"Luis Galeano y Pedroni",-31.38619,-64.2178
2312,"C2312","Goycoechea",3370,"Albornoz y Rodriguez del Busto",-31.37826,-64.22319
2313,"C2313","Rodriguez del Busto",2817,"Goycoechea y Bacacay",-31.37584,-64.22277
2314,"C2314","Rodriguez del Busto",3068,"Roberto Viola y Los Granaderos",-31.37336,-64.2222
2315,"C2315","Rodriguez del Busto",3174,"Los Granaderos y Dinosaurio Mall",-31.37147,-64.2218
2316,"C2316","Rodriguez del Busto",3523,"Frente Dinosaurio Mall",-31.36767,-64.22085
2317,"C2317","La Cordillera",3500,"Frente Orfeo",-31.36551,-64.2216
2318,"C2318","La Cordillera",3850,"Juan Cruz Varela y Bustamante",-31.3642,-64.22474
2319,"C2319","La Cordillera",4046,"Capdevila y Gavier",-31.36304,-64.22738
2320,"C2320","La Cordillera",4294,"Matel de los Rios y Obispo Mercadillo",-31.36195,-64.22991
2321,"C2321","La Cordillera",4568,"Pizarro y Buteler",-31.3611,-64.23186
2322,"C2322","La Cordillera",4700,"Manuel Lopez y Candonga",-31.35992,-64.23463
2323,"C2323","La Cordillera",4822,"Blanqui y El Gaucho",-31.3597,-64.23515
2324,"C2324","Rafael Nuñez",5220,"Nudo Vial y Gaviola",-31.35588,-64.24259
2325,"C2325","Rafael Nuñez",5471,"Pappin y Parmenio Ferrer",-31.352947,-64.245862
2326,"C2326","Potel Junot",6184,"Rafael Nuñez y Francisco de Olea",-31.35044,-64.24668
2329,"C2329","Potel Junot",6751,"Oddone y Elkin",-31.34584,-64.24254
2332,"C2332","Los Alemanes",5979,"Frente Plaza",-31.34328,-64.24523
2338,"C2338","Fermin Martin",,"Esquina con Gritti",-31.33741,-64.24599
2342,"C2342","Fermin Martin",8043,"Bejanele y Cabalen",-31.33023,-64.24687
2345,"C2345","Calviño",8130,"Cabalen y Anticaglia",-31.32898,-64.25411
2346,"C2346","Calviño",8200,"Patria y Ovides",-31.32797,-64.25411
2347,"C2347","Calviño",8287,"Ovides y Bossola",-31.32606,-64.25412
2348,"C2348","Calviño",8550,"Marimon y Bucci",-31.32465,-64.25413
2350,"C2350","Pizzolatto",6894,"Esquina con Ortega",-31.32247,-64.25652
2351,"C2351","Ortega",8800,"Roatta y Marimon",-31.32103,-64.25643
2352,"C2352","Marimon",,"Julian Elguea y Amuchastegui",-31.32062,-64.255
2353,"C2353","Amuchastegui",8614,"Frente a la Plaza",-31.31891,-64.25576
2354,"C2354","Amuchastegui",8739,"Ibaguren y Tomasini",-31.31728,-64.25688
2355,"C2355","Peña",,"Esquina con Borda",-31.31637,-64.25751
2356,"C2356","Borda",,"Esquina con Calle Publica",-31.31665,-64.25926
2357,"C2357","Unidad Nacional",300,"Casilla",-31.30698,-64.2871
2358,"C2358","Peron",211,"Auzzani y Pucara",-31.30777,-64.28509
2359,"C2359","Peron",69,"Del Llano y Linco",-31.30845,-64.28235
2360,"C2360","Peron",15,"Esquina con Goycoechea",-31.3086,-64.28069
2361,"C2361","Donato Alvarez",9943,"Maiten y Lancun",-31.31045,-64.27883
2362,"C2362","Donato Alvarez",9800,"Estacion de Servicio",-31.31174,-64.27787
2363,"C2363","Donato Alvarez",9609,"Yafu y Boro",-31.31318611,-64.276875
2364,"C2364","Donato Alvarez",9426,"Boro y Loncoche",-31.31479167,-64.27574722
2366,"C2366","Arrayan",9133,"Cauque y Molleyaco",-31.32031944,-64.27450833
2367,"C2367","Molleyaco",7729,"Niyeu y Donato Alvarez",-31.32012222,-64.27312778
2368,"C2368","Cauque",7450,"Coligue y Chacal",-31.31829,-64.27112
2369,"C2369","Cauque",7300,"Matra y Kawal",-31.31701,-64.26863
2370,"C2370","Tabacue",9143,"Cauque y Casuati",-31.31652,-64.2671
2371,"C2371","Tabacue",8927,"Casuati y Vulcan",-31.31815,-64.26598
2372,"C2372","Tabacue",8770,"Chaquira y Cambaceres",-31.31942,-64.26521
2373,"C2373","Tipayante",7500,"Tabacue y Sin Datos",-31.32113,-64.26605
2374,"C2374","Tipayante",7687,"Chacal y Donato Alvarez",-31.32271,-64.26913
2375,"C2375","Donato Alvarez",8423,"Malalco y Piedra Labrada",-31.32515,-64.26843
2376,"C2376","Donato Alvarez",8253,"Mogrovejo y Agua de la Pilona",-31.32714,-64.267
2377,"C2377","Donato Alvarez",8011,"Alcalifes y Tomas Garzon",-31.32958,-64.26534
2381,"C2381","Donato Alvarez",7410,"Frente Arguello Juniors",-31.33605,-64.26161
2382,"C2382","Donato Alvarez",7335,"Dispensario",-31.33672,-64.26015
2386,"C2386","Rafael Nuñez",6107,"Esquina Andres Piñero",-31.34614,-64.25066
2389,"C2389","Rafael Nuñez",5600,"Gauss y Papin",-31.35181,-64.24713
2391,"C2391","Rafael Nuñez",5229,"Permenio Ferrer y Astrada Ponce",-31.35438,-64.24436
2397,"C2397","Rafael Nuñez",4121,"del Campillo y Bustos",-31.37029,-64.23162
2398,"C2398","Rafael Nuñez",4005,"Bautista Daniel y Victorino Rodriguez",-31.37187,-64.23028
2399,"C2399","Rafael Nuñez",3900,"Rique Ferreyra y Beverina",-31.37385,-64.22858
2404,"C2404","Octavio Pinto",3135,"Democracia y Temistocles Castellano",-31.38498,-64.22027
2419,"C2419","Colon",761,"Urquiza y Fragueiro",-31.4105,-64.19364
2421,"C2421","Gral. Paz",79,"9 de Julio y Dean Funes",-31.41429,-64.18617
2424,"C2424","Illia",226,"Ituzaingo y Chacabuco",-31.42177,-64.18298
2425,"C2425","Illia",654,"Balcarce y Transito Caceres",-31.42315,-64.17735
2426,"C2426","Sabattini",350,"Frente Taborin",-31.42601,-64.17359
2507,"C2507","Sabattini",359,"Frente Taborin",-31.42641,-64.17286
2509,"C2509","San Jeronimo",453,"Parana y Obispo Salguero",-31.41894,-64.17832
2511,"C2511","27 de Abril",340,"Belgrano y Ayacucho",-31.41585,-64.18867
2512,"C2512","Corro",37,"27 de Abril y Dean Funes",-31.41405,-64.19378
2513,"C2513","Fragueiro",260,"Colon y Santa Rosa",-31.4105,-64.19245
2514,"C2514","Humberto Primo",850,"Urquiza y Avellaneda",-31.40686,-64.19273
2527,"C2527","Octavio Pinto",3150,"Temistocles Castellano y Manuel Quintana",-31.38472,-64.22039
2528,"C2528","Octavio Pinto",3318,"Javier Lopez y Sagrada Familia",-31.38311,-64.22257
2531,"C2531","Rafael Nuñez",3736,"Burger y Alameda",-31.375182,-64.22712
2542,"C2542","Rafael Nuñez",5752,"Potel Junot y Lo Celso",-31.35105,-64.247629
2543,"C2543","Rafael Nuñez",6004,"Taravella y Martinez",-31.34784,-64.24951
2547,"C2547","Donato Alvarez",7393,"Ataguille y Sin Datos",-31.33638,-64.2607
2549,"C2549","Donato Alvarez",7796,"Massetti y Tehuelches",-31.33205,-64.26284
2550,"C2550","Donato Alvarez",7996,"Massetti y Rodolfo Medica",-31.32978,-64.26509
2552,"C2552","Donato Alvarez",8524,"Malalco y Sin Datos",-31.32502,-64.26839
2553,"C2553","Donato Alvarez",8612,"Malalco y Tipayante",-31.32376,-64.26927
2554,"C2554","Chaquira",7688,"Donato Alvarez y",-31.32174,-64.26971
2555,"C2555","Chaquira",7500,"Argentina y Alvarez Jonte",-31.3204,-64.26711
2556,"C2556","Chaquira",7405,"Alvarez Jonte y Tabacue",-31.31963,-64.26557
2557,"C2557","Tabacue",8930,"Vulcan y Casuhati",-31.31835,-64.26584
2558,"C2558","Cauque",7300,"Tabacue y Llancaquen",-31.31632,-64.26728
2559,"C2559","Cauque",7400,"Kawall y Matra",-31.31704,-64.26879
2560,"C2560","Cauque",7500,"Laques y Chacal",-31.31784,-64.27027
2561,"C2561","Cauque",7672,"Coligue y Donato Alvarez",-31.318614,-64.2715
2562,"C2562","Donato Alvarez",9351,"Auquinco y Quilloamira",-31.316997,-64.27395
2563,"C2563","Donato Alvarez",9596,"Loncoche y Boro",-31.31428056,-64.27587222
2564,"C2564","Donato Alvarez",9760,"Yafu y Lancun",-31.31220833,-64.27732778
2565,"C2565","Donato Alvarez",9960,"Llancafu y Amazonas",-31.31002,-64.27896
2566,"C2566","Peron",50,"Esquina con Goycoechea",-31.3084,-64.28034
2569,"C2569","Peron",,"Esquina Auzzani",-31.30724,-64.28764
2573,"C2573","Linco",10000,"Maloca y Malten",-31.30969,-64.28129
2574,"C2574","Linco",9725,"Quilca y Boro",-31.31263,-64.28228
2575,"C2575","Linco",9500,"Loncoche y Cruz Alta",-31.31403,-64.28276
2576,"C2576","Cruz Alta",8308,"Linco y Chicalco",-31.315,-64.28142
2577,"C2577","Cruz Alta",8176,"Lighen y Curaco",-31.3156,-64.27898
2578,"C2578","Cruz Alta",8000,"Curaco y Rincon de Luna",-31.31589,-64.27783
2580,"C2580","Donato Alvarez",9200,"Auquinco y Cauque",-31.31861389,-64.27306667
2582,"C2582","Molleyaco",7994,"Arrayan y Pehuenches",-31.32143333,-64.27576667
2583,"C2583","Molleyaco",8097,"Pehuenches y Yupaqui",-31.32245,-64.27771
2584,"C2584","Molleyaco",8261,"Payen y San Pedro Toyos",-31.32398,-64.28067
2585,"C2585","Molleyaco",8338,"Payen y San Pedro Toyos",-31.32451,-64.28162
2586,"C2586","San Pedro Toyos",8400,"Molleyaco y Piedra Labrada",-31.32499,-64.28261
2587,"C2587","Piedra Labrada",8337,"San Pedro Toyo y Cashuati",-31.32552,-64.28146
2588,"C2588","Piedra Labrada",8266,"Huayana y Sinchi Roca",-31.32556,-64.27968
2589,"C2589","Piedra Labrada",8100,"Payen y Yupanqui",-31.32561,-64.27793
2590,"C2590","Piedra Labrada",8000,"Tipayante y Charruas",-31.32561,-64.27793
2591,"C2591","Piedra Labrada",7865,"Huarpes y Arrayan",-31.32578,-64.2711
2592,"C2592","Piedra Labrada",7710,"Onas y Donato Alvarez",-31.32585,-64.26875
2595,"C2595","Donato Alvarez",7900,"Rodolfo Medica y Querandies",-31.33084,-64.26446
2596,"C2596","Donato Alvarez",7750,"Tehuelches y Fangio",-31.33196,-64.26314
2597,"C2597","Donato Alvarez",7629,"Donato Alvarez y Pozo de la Loma",-31.33307,-64.2623
2600,"C2600","Donato Alvarez",7139,"Frente Blas Pascal",-31.3386,-64.25735
2601,"C2601","Donato Alvarez",6600,"Frente CPC",-31.34106,-64.25465
2602,"C2602","Rafael Nuñez",6348,"Francisco Aston y Nicasio",-31.34412,-64.25191
2657,"C2657","Illia",264,"Ver",-31.42177,-64.18298
2726,"C2726","Bajada Pucara",,"Ferroviarios y Peron",-31.42834,-64.16957
2727,"C2727","Peron",,"Frente Terminal",-31.42202,-64.17479
2728,"C2728","San Jeronimo",539,"Balcarce y Obispo Salguero",-31.41924,-64.17736
2729,"C2729","San Jeronimo",378,"Santiego del Estero",-31.41865,-64.17955
2730,"C2730","27 de Abril",75,"Frente Catedral",-31.41745,-64.18328
2731,"C2731","27 de Abril",359,"Belgrano y Ayacucho",-31.41578,-64.18868
2786,"C2786","Donato Alvarez",7668,"Paso de la Loma y Cesar Milone",-31.33394,-64.26228
2789,"C2789","Donato Alvarez",8230,"Agua de la Pilona y Mogrovejo",-31.32733,-64.26674
2790,"C2790","Piedra Labrada",7800,"Donato Alvarez y Onas",-31.32581,-64.26863
2791,"C2791","Piedra Labrada",7890,"Arrayan y Huarpes",-31.32576,-64.27098
2792,"C2792","Piedra Labrada",8014,"Charruas y Tipayante",-31.32576,-64.27098
2793,"C2793","Piedra Labrada",8096,"Tipayante y Yupanqui",-31.32576,-64.27098
2794,"C2794","Piedra Labrada",8250,"Yupanqui y Vulcan",-31.32556,-64.27887
2795,"C2795","Piedra Labrada",8386,"Casuhati y San Pedro de Toyos",-31.32549,-64.28182
2796,"C2796","Molleyaco",8323,"San Pedro de Toyos y Payen",-31.32455,-64.2817
2797,"C2797","Molleyaco",8108,"Payen y Yupanqui",-31.32279,-64.27828
2798,"C2798","Molleyaco",8011,"Yupanqui y Pehuenches",-31.32253,-64.27777
2799,"C2799","Molleyaco",7903,"Pehuenches y Arrayan",-31.32153056,-64.27578333
2802,"C2802","Cruz Alta",8000,"Donato Alvarez y Rincon de Luna",-31.31622222,-64.27524444
2803,"C2803","Cruz Alta",8186,"Curaco y Lighen",-31.31576,-64.27828
2804,"C2804","Cruz Alta",8392,"Chicalco y Linco",-31.31466,-64.28262
2805,"C2805","Linco",9800,"Boro y Quilca",-31.31288,-64.28235
2806,"C2806","Linco",10000,"Malten y Maloca",-31.30983,-64.28131
2807,"C2807","Peron",68,"Linco y Sin Datos",-31.30857,-64.2815
2808,"C2808","Peron",183,"Esquina Pucara",-31.30788,-64.28432
2809,"C2809","Peron",294,"Pucara y Auzzani",-31.30737,-64.28648
2820,"C2820","Hipolito Irigoyen",660,"Carlos Thays y Plaza España",-31.43017,-64.1838
2821,"C2821","Chacabuco",775,"Derqui y Obispo Oro",-31.42649,-64.18381
2822,"C2822","Chacabuco",551,"San Lorenzo y Rondeau",-31.42452,-64.18305
2830,"C2830","Gral. Paz",55,"9 de Julio y Dean Funes",-31.4146,-64.18653
2832,"C2832","San Juan",55,"Obispo Trejo e Independencia",-31.42073,-64.1871
2838,"C2838","Sabattini",1400,"Esquina Monserrat",-31.43068,-64.16806
2841,"C2841","Sabattini",2136,"Cadiz y Barcelona",-31.43325,-64.15802
2845,"C2845","Sabattini",2984,"Futaleufu y Ramon Ocampo",-31.43343,-64.14802
2848,"C2848","Sabattini",3800,"Picaflor y ¥andu",-31.43203,-64.13764
2859,"C2859","Sabattini",5550,"Frente Cargo",-31.45774,-64.11055
2860,"C2860","Sabattini",5650,"Padilla y Sanchez de Loria",-31.45964,-64.10863
2863,"C2863","Ciudad de mis Sueños",,"Entrada",-31.47742,-64.08962
2864,"C2864","Publica C. mis Sueños",,"Frente Manzana 43",-31.47742,-64.08792
2865,"C2865","Publica C. mis Sueños",,"Frente Manzana 44",-31.47742,-64.08625
2866,"C2866","Publica C. mis Sueños",,"Frente Manzana 51",-31.47891,-64.08518
2867,"C2867","Publica C. mis Sueños",,"Frente Manzana 52",-31.48028,-64.08521
2868,"C2868","Publica C. mis Sueños",,"Llegando Jardin de Infantes",-31.48083,-64.08467
2869,"C2869","Publica C. mis Sueños",,"Detrás del Colegio",-31.48213,-64.0843
2870,"C2870","Ruta 9",,"Pauli y Schrodinger",-31.48855,-64.07882
2871,"C2871","Entrada 25 de Mayo",,"Paso Nivel",-31.4909,-64.07662
2872,"C2872","Cumbres de Gaspar",,"La Carbonada",-31.48992,-64.0786
2873,"C2873","Cumbres de Gaspar",,"La Carbonada",-31.48991,-64.081
2874,"C2874","Cumbres de Gaspar",,"La Carbonada",-31.48991,-64.08339
2875,"C2875","Cumbres de Gaspar",,"La Carbonada",-31.4899,-64.08625
2876,"C2876","Cumbres de Gaspar",,"La Carbonada",-31.4899,-64.08625
2877,"C2877","Cumbres de Gaspar",,"La Carbonada",-31.4899,-64.08625
2878,"C2878","Cumbres de Gaspar",,"La Carbonada",-31.48994,-64.08396
2879,"C2879","Cumbres de Gaspar",,"La Carbonada",-31.48995,-64.07923
2880,"C2880","Cumbres de Gaspar",,"Salida 25 de Mayo",-31.49067,-64.0772
2881,"C2881","Ruta 9 Sur",,"Km. 688",-31.49934,-64.06739
2882,"C2882","Ruta 9 Sur",,"Fabrica Metal-Ce",-31.49414,-64.07296
2883,"C2883","Ruta 9 Sur",,"Salida La Carbonada",-31.49105,-64.07614
2884,"C2884","Ruta 9 Sur",,"Paso Nivel y Schroding",-31.48868,-64.07859
2885,"C2885","Ruta 9 Sur",,"Pauli y Cuidad de Mis Sueños",-31.48533,-64.08202
2886,"C2886","Parque Ituzaingo",,"Entrada",-31.4831,-64.08429
2887,"C2887","Publica",,"Frente Colegio",-31.48114,-64.0843
2888,"C2888","Publica C. mis Sueños",,"Frente Manzana 56",-31.48027,-64.08522
2889,"C2889","Publica C. mis Sueños",,"Frente Centro Comunal",-31.47792,-64.08517
2890,"C2890","Publica C. mis Sueños",,"Frente Manzana 31",-31.47715,-64.08729
2891,"C2891","Publica C. mis Sueños",,"Frente Manzana 31",-31.47715,-64.08893
2892,"C2892","Sabattini",6250,"Esquina Vucetich",-31.46526,-64.10265
2894,"C2894","Sabattini",5821,"Jose Cabrera y Jose Villegas",-31.46201,-64.10604
2895,"C2895","Sabattini",5659,"Sanchez de Loria y Manuel Padilla",-31.45982,-64.10828
2900,"C2900","Sabattini",5200,"Frente FIAT",-31.45236,-64.11588
2903,"C2903","Sabattini",4900,"Calingasta y Fiambala",-31.44077,-64.12732
2904,"C2904","Sabattini",4600,"Frente Arco de Cordoba",-31.43852,-64.12822
2912,"C2912","Sabattini",2915,"Ramon Ocampo y Tristan Narvaja",-31.43326,-64.148
2913,"C2913","Sabattini",2633,"Juan Rodriguez y Sargento Cabral",-31.43309,-64.15116
2915,"C2915","Sabattini",2241,"Tejedor y Morse",-31.43302,-64.15627
2919,"C2919","Sabattini",1400,"Esquina Monserrat",-31.43084,-64.16693
2925,"C2925","Velez Sarsfield",224,"Caceros y Duarte Quiros",-31.41755,-64.18766
2929,"C2929","Hipolito Irigoyen",552,"Ituzaingo y Larrañaga",-31.42717,-64.18556
2946,"C2946","Vucetich",7195,"Faraday y Westinghouse",-31.46503,-64.08724
2947,"C2947","Vucetich",7100,"Stephenson y Lumiere",-31.46503,-64.08891
2948,"C2948","Vucetich",6924,"Watt y Ohm",-31.465,-64.09172
2949,"C2949","Vucetich",6673,"Hertz y Guttemberg",-31.46499,-64.09441
2950,"C2950","Vucetich",6505,"Daimler y Kelvin",-31.46499,-64.09661
2953,"C2953","Sabattini",6050,"Vucetich y Pesta¤a",-31.46354,-64.10445
2959,"C2959","Sabattini",5300,"Frente a Tubos Transelectric",-31.45382,-64.11442
2984,"C2984","27 de Abril",95,"Independencia y Obispo Trejo",-31.4168,-64.18537
2997,"C2997","Sabattini",1400,"Esquina Monserrat",-31.43053,-64.16836
2998,"C2998","Sabattini",1636,"Cartagena y Huelva",-31.43158,-64.16454
2999,"C2999","Sabattini",1800,"Extremadura y El Escorial",-31.43283,-64.16212
3007,"C3007","Sabattini",3784,"Picaflor y Ñandu",-31.43226,-64.13721
3008,"C3008","Sabattini",3970,"Zorsal y Punilla",-31.4329,-64.13509
3009,"C3009","Sabattini",4290,"Sacanta y Tancacha",-31.43463,-64.13176
3016,"C3016","Sabattini",5375,"Frente Fiat Auto Argentina",-31.45486,-64.11354
3017,"C3017","Sabattini",5400,"Interindustria y Huergo",-31.45631,-64.11206
3020,"C3020","Sabattini",6028,"Frente Cordiez",-31.46172,-64.10642
3022,"C3022","Vucetich",6250,"Sabattini y Taylor",-31.46503,-64.10079
3023,"C3023","Vucetich",6340,"Dalton y Diesel",-31.46503,-64.09906
3029,"C3029","Vucetich",7390,"Lorentz y Bragg",-31.46537,-64.08561
3030,"C3030","Vucetich",7500,"Compton y Guillaume",-31.46503,-64.084
3031,"C3031","Soriano de Arevalos",2410,"Julio de Vedia y Heroes de Vilcapugio",-31.368429,-64.137954
3032,"C3032","Vucetich",,"Casilla",-31.46506,-64.08123
3033,"C3033","Soriano de Arevalos",2560,"Heroinas de Ayohuma  y Heroes de Vilcapu",-31.36842,-64.135687
3034,"C3034","Chachapoyas",3546,"Niceto Vega y Chorroarin",-31.3697,-64.1331
3035,"C3035","Rincon",2180,"Eufrasio Loza y Garibaldi",-31.4045,-64.15705
3041,"C3041","Cno C. de los Remedios",,"Esquina Faraday",-31.458542,-64.087313
3046,"C3046","Oncativo",1795,"Güemes y Lamadrid",-31.40801,-64.16164
3047,"C3047","Oncativo",1930,"Mexico y Patria",-31.407502,-64.15888
3048,"C3048","Patria",683,"Oncativo y Libertad",-31.40639,-64.15888
3100,"C3100","Peron",,"Frente nueva Terminal",-31.42382,-64.17326
3110,"C3110","Nuestro Hogar 2",,"Despues de Barrio Zepa",-31.388235,-64.098324
3115,"C3115","Apostoles",,"Jesus maria y Jovita",-31.41594,-64.14663
3119,"C3119","Maestro Vidal",1284,"Verdi y Rogatis",-31.422584,-64.228179
3120,"C3120","Apostoles",,"Jovita y Jesus Maria",-31.41601,-64.146757
3121,"C3121","Maestro Vidal",1488,"Luis Agote y Hector Paniza",-31.424931,-64.22875
3122,"C3122","Maestro Vidal",1678,"Gomez Carrillo y Alberto Williams",-31.428185,-64.229657
3123,"C3123","Maestro Vidal",1830,"Pinedo y Buchardo",-31.430339,-64.23022
3124,"C3124","Alexander Fleming",2050,"Aconcagua y Uritorco",-31.433446,-64.235831
3125,"C3125","Alexander Fleming",2350,"Gabriela Mistral y Lagunilla",-31.437107,-64.235833
3126,"C3126","Alexander Fleming",2650,"Octaviano Navarro y Antartida",-31.439551,-64.23582
3127,"C3127","Alexander Fleming",2950,"Olivares y Los Pinos",-31.442561,-64.235801
3128,"C3128","Alexander Fleming",3250,"Frontera y la que sigue",-31.446466,-64.235789
3129,"C3129","Alexander Fleming",3450,"Amsterdam y Estocolmo",-31.448624,-64.235822
3130,"C3130","Pueyrredon",1950,"Ing. Lopez y Ocaña",-31.420206,-64.214583
3131,"C3131","Pueyrredon",2350,"Punta Lara y Vieytes",-31.41972,-64.217861
3132,"C3132","Pueyrredon",2650,"Olegario Correa y Brown",-31.419783,-64.220987
3133,"C3133","Schubert",1130,"Peredo y Albeniz",-31.419501,-64.226744
3134,"C3134","Alexander Fleming",3450,"Amsterdam y Estocolmo",-31.448624,-64.235822
3135,"C3135","Rufino Varela Ortiz",3250,"Frontera y la que sigue",-31.446423,-64.237516
3136,"C3136","Rufino Varela Ortiz",2950,"Olivares y Los Pinos",-31.44258,-64.236974
3137,"C3137","Rufino Varela Ortiz",2650,"Octaviano Navarro y Antartida",-31.439552,-64.236949
3138,"C3138","Rufino Varela Ortiz",2350,"Gabriela Mistral y Lagunilla",-31.437102,-64.236977
3139,"C3139","Rufino Varela Ortiz",2050,"Aconcagua y Uritorco",-31.433431,-64.236952
3140,"C3140","Maestro Vidal",1830,"Pinedo y Buchardo",-31.430339,-64.23022
3141,"C3141","Maestro Vidal",1678,"Gomez Carrillo y Alberto Williams",-31.428185,-64.229657
3142,"C3142","Maestro Vidal",1488,"Luis Agote y Hector Paniza",-31.424931,-64.22875
3143,"C3143","Maestro Vidal",1284,"Verdi y Rogatis",-31.422584,-64.228179
3144,"C3144","Maestro Vidal",1130,"Peredo y Albeniz",-31.419396,-64.227277
3145,"C3145","Pueyrredon",1950,"Ing. Lopez y Ocaña",-31.420206,-64.214583
3146,"C3146","Pueyrredon",2350,"Punta Lara y Vieytes",-31.41972,-64.217861
3147,"C3147","Pueyrredon",2650,"Olegario Correa y Brown",-31.419783,-64.220987
3150,"C3150","Reconquista",3611,"Diaz de la Fuente y Fleming",-31.43763,-64.23623
3151,"C3151","Reconquista",3777,"Graham Bell y Varela Ortiz",-31.43765,-64.23843
3152,"C3152","Reconquista",3918,"Maria Courie y Luis Pasteur",-31.43766,-64.24019
3153,"C3153","Fournier",2511,"Esmeralda y Reconquista",-31.438,-64.24179
3154,"C3154","Fournier",2615,"Antartida y Octaviano Navarro",-31.43925,-64.24179
3155,"C3155","Diamante",4100,"Maria Courie y Fournier",-31.44064,-64.24167
3156,"C3156","Diamante",3380,"Varela Ortiz y Luis Pasteur",-31.44064,-64.23884
3200,"C3200","Donosa",,"Totoral y Olta",-31.452821,-64.269166
3201,"C3201","Donosa",,"Virgenes y El Alto",-31.4528,-64.264784
3202,"C3202","Donosa",,"Ballester y Villa Angela",-31.45244,-64.257024
3203,"C3203","Alto Alegre",,"Zuloaga y Bradley",-31.423573,-64.263863
3204,"C3204","Alto Alegre",,"Cattaneo y Sgto. Gomez",-31.420713,-64.263729
3205,"C3205","Necuñan",,"Pincen y San Hueque",-31.416492,-64.258856
3210,"C3210","Donosa",,"Ballester y Villa Angela",-31.45244,-64.257024
3211,"C3211","Donosa",,"Virgenes y El Alto",-31.4528,-64.264784
3212,"C3212","Donosa",,"Totoral y Olta",-31.452821,-64.269166
3213,"C3213","Necuñan",,"Pincen y San Hueque",-31.416492,-64.258856
3214,"C3214","Alto Alegre",,"Cattaneo y Sgto. Gomez",-31.420713,-64.263729
3215,"C3215","Alto Alegre",,"Zuloaga y Bradley",-31.423573,-64.263863
3300,"C3300","Ricardo Rojas",7330,"Mocovies y Tomas Garzon",-31.335045,-64.265272
3301,"C3301","Ricardo Rojas",7900,"Huarpes y Udaondo",-31.334622,-64.272463
3302,"C3302","Ricardo Rojas",8200,"Pachamama y Yupanqui",-31.336005,-64.276538
3303,"C3303","Ricardo Rojas",8500,"Huacac y Huayna",-31.336902,-64.280714
3304,"C3304","Ricardo Rojas",8800,"Tahuantisuyo y Mamaquilla",-31.337344,-64.285186
3305,"C3305","Bodereau",,"Ricardo Rojas y Amigorena",-31.336202,-64.288082
3306,"C3306","Bodereau",,"Amigorena y Hanan Pacha",-31.333759,-64.288063
3307,"C3307","Bodereau",,"Leon XIII y Pozo de la Loma",-31.331716,-64.288066
3308,"C3308","Bodereau",,"Leon XIII y Pozo de la Loma",-31.329261,-64.288005
3309,"C3309","Bodereau",,"Agua de la Pilona y Mussi",-31.326657,-64.288573
3310,"C3310","Bodereau",,"Canteras de Quilpo y de los Gauchos",-31.323091,-64.288455
3311,"C3311","Bodereau",,"Quilloamira y Rincon de Luna",-31.319803,-64.288291
3312,"C3312","Bodereau",,"Cabral y Sacha",-31.316694,-64.288164
3313,"C3313","Bodereau",,"Macha y Cruz Alta",-31.313798,-64.288103
3314,"C3314","Cruz Alta",,"Corral de Bustos y Montebuey",-31.313265,-64.29118
3315,"C3315","Cruz Alta",,"Laborde y Arroyito",-31.313172,-64.294333
3316,"C3316","Cruz Alta",,"San Marcos Sierra y BelleVille",-31.313069,-64.297598
3317,"C3317","San Jeronimo",,"San Salvador y Jamaica",-31.314671,-64.300938
3318,"C3318","San Jeronimo",,"Esquina Avellaneda",-31.315243,-64.304277
3319,"C3319","San Lorenzo",,"Esq. Eva Peron",-31.315792,-64.3069
3350,"C3350","San Lorenzo",,"Esq. Eva Peron",-31.315792,-64.3069
3351,"C3351","San Jeronimo",,"Esquina Avellaneda",-31.315243,-64.304277
3352,"C3352","San Jeronimo",,"San Salvador y Jamaica",-31.314671,-64.300938
3353,"C3353","Cruz Alta",,"San Marcos Sierra y BelleVille",-31.313069,-64.297598
3354,"C3354","Cruz Alta",,"Laborde y Arroyito",-31.313172,-64.294333
3355,"C3355","Cruz Alta",,"Corral de Bustos y Montebuey",-31.313265,-64.29118
3356,"C3356","Bodereau",,"Macha y Cruz Alta",-31.313798,-64.288103
3357,"C3357","Bodereau",,"Cabral y Sacha",-31.316694,-64.288164
3358,"C3358","Bodereau",,"Quilloamira y Rincon de Luna",-31.319803,-64.288291
3359,"C3359","Bodereau",,"Canteras de Quilpo y de los Gauchos",-31.323091,-64.288455
3360,"C3360","Bodereau",,"Agua de la Pilona y Mussi",-31.326657,-64.288573
3361,"C3361","Bodereau",,"Leon XIII y Pozo de la Loma",-31.329261,-64.288005
3362,"C3362","Bodereau",,"Leon XIII y Pozo de la Loma",-31.331716,-64.288066
3363,"C3363","Bodereau",,"Amigorena y Hanan Pacha",-31.333759,-64.288063
3364,"C3364","Bodereau",,"Ricardo Rojas y Amigorena",-31.336202,-64.288082
3365,"C3365","Ricardo Rojas",8800,"Tahuantisuyo y Mamaquilla",-31.337344,-64.285186
3366,"C3366","Ricardo Rojas",8500,"Huacac y Huayna",-31.336902,-64.280714
3367,"C3367","Ricardo Rojas",8200,"Pachamama y Yupanqui",-31.336005,-64.276538
3368,"C3368","Ricardo Rojas",7900,"Huarpes y Udaondo",-31.334622,-64.272463
3369,"C3369","Ricardo Rojas",7330,"Mocovies y Tomas Garzon",-31.335045,-64.265272
3370,"C3370","Los Chañares",,"Noguchi y Los Algarrobos",-31.462124,-64.09493
3371,"C3371","Los Chañares",,"Los Algarrobos y Noguchi",-31.462124,-64.09493
3372,"C3372","Cno C. de los Remedios",,"Entre Sabattini y Marzazno",-31.460408,-64.105155
3373,"C3373","Cno C. de los Remedios",,"Entre Marzano y Sabattini",-31.460408,-64.105155
3374,"C3374","Calingasta",,"Esq. Radio María",-31.441059,-64.111297
3375,"C3375","Tulumba",,"Entre 2º y 3º bocacalle",-31.444157,-64.111084
2041,"C2041","Cangallo",3105,"Malabia y Pacheco de Melo",-31.44597,-64.11865
2043,"C2043","Cangallo",2803,"Acevedo y Thames",-31.44266,-64.11864
2004,"C2004","Cangallo",2900,"Ignacio Thames y Manuel Acevedo",-31.44277,-64.11865
2007,"C2007","Cangallo",3250,"Serrano y Antonio Sanchez",-31.44691,-64.1187
3376,"C3376","Las Heras",815,"Piñero y Barcala",-31.405371,-64.192575
3377,"C3377","Las Heras",467,"Pasando Lavalleja",-31.405635,-64.186945
3378,"C3378","Las Heras",,"Las Heras y Mestre",-31.405013,-64.184316
3379,"C3379","Gral. Paz",527,"Pasando Plazoleta",-31.408752,-64.184115
3380,"C3380","Jujuy ",334,"Santa Rosa y Rioja",-31.410061,-64.189219
3381,"C3381","Jujuy ",570,"Hombuerto 1º y Mestre",-31.40728,-64.188118
3382,"C3382","Ducasse",650,"Frente ACV",-31.404218,-64.188581
3384,"C3384","Ducasse",824,"Barcala y Sarratea",-31.403845,-64.19193
3385,"C3385","Ducasse",1034,"Avellaneda y Castro Barro",-31.403731,-64.194218
2160,"C2160","Larguia",6354,"Pompeyo Moneta y Humboldt",-31.33868,-64.24711
2161,"C2161","Larguia",,"Esquina Tamburini",-31.33938,-64.24986
2162,"C2162","Tamburini",,"Esquina Los Alemanes",-31.34139,-64.25124
2163,"C2163","Doering",6160,"Pompeyo y Bv. Los Alemanes",-31.34267,-64.24865
2333,"C2333","Doering",6193,"Frente a plaza de la Madre",-31.34262,-64.24858
2334,"C2334","Doering",6329,"Pompeya Moneta y Bv. Alemanes",-31.34219,-64.24971
2335,"C2335","Tamburini",6900,"Doering y Junas Larguia",-31.34139,-64.25102
2336,"C2336","Tamburini",7080,"Esquina con Larguia",-31.33963,-64.25033
2337,"C2337","Larguia",6354,"Esquina con Pompeyo Moneta",-31.33882,-64.2477
3386,"C3386","Martinolli",5149,"Astrada de Ponce y Laplace",-31.357061,-64.24248
3387,"C3387","Martinolli",5326,"Astrada de Ponce y Evang. Torricelli",-31.35485,-64.245804
3388,"C3388","Martinolli",5631,"Papin y Gauss",-31.352752,-64.248259
806,"C0806","Pasteur",3125,"Riga y Sin Datos",-31.44496,-64.23936
807,"C0807","Pasteur",3011,"Marcelino Augier y Maugier",-31.44353,-64.23936
3389,"C3389","Pringles",,"Lima y Catamarca",-31.412583,-64.167713
3390,"C3390","Pringles",1019,"Ibarbalz y Juan de Garay",-31.406031,-64.170073
3391,"C3391","Pringles",1290,"Charcas y Cochabamba",-31.403185,-64.171181
3392,"C3392","Potosi",1392,"Jacinto Rios y Viamonte",-31.401047,-64.169785
3393,"C3393","Antartida",2703,"Padre Lozano y Lafore",-31.440267,-64.223517
3394,"C3394","Antartida",2680,"Lafore y Padre Lozano",-31.440267,-64.223517
3395,"C3395","Valparaiso",,"Fte. Ciencias Economicas",-31.435495,-64.185327
3396,"C3396","Valparaiso",,"Fte. Esc. Enfermeria",-31.43827,-64.186078
3397,"C3397","Filloy",,"Fte. Comedor Universitario",-31.4405,-64.189556
3398,"C3398","Filloy",,"Fte. Comedor Universitario",-31.4405,-64.189556
3399,"C3399","Valparaiso",,"Fte. Esc. Enfermeria",-31.43827,-64.186078
3400,"C3400","Valparaiso",,"Fte. Ciencias Economicas",-31.435495,-64.185327
3401,"C3401","Belgrano",1421,"Richardson y Temple",-31.431248,-64.195038
3402,"C3402","Belgrano",1275,"Lacosta y Peru",-31.429456,-64.194287
3403,"C3403","Belgrano",1039,"Brasil y Peredo",-31.426849,-64.193198
3404,"C3404","Medina Allende",,"Esq. Haya de la Torre",-31.435971,-64.191728
3405,"C3405","Medina Allende",,"Esq. Hayta de la Torre",-31.436019,-64.191926
3406,"C3406","Venezuela",15,"Parque de las Tejas",-31.434143,-64.188627
3407,"C3407","Venezuela",55,"Buenos Aires y Pje. España",-31.433116,-64.190122
3408,"C3408","Richardson",70,"Independencia y Olmos",-31.432491,-64.192059
3409,"C3409","Bajada de Piedras",,"Esq. Castañares",-31.408711,-64.150293
3410,"C3410","Bajada de Piedras",,"Olivera y Cavero",-31.406557,-64.147513
3411,"C3411","Bajada de Piedras",,"Pasando Victor Manuel III",-31.405357,-64.142766
3412,"C3412","Bajada de Piedras",,,-31.404098,-64.140543
3413,"C3413","Bajada de Piedras",,,-31.403185,-64.137989
3414,"C3414","Bajada de Piedras",,,-31.403364,-64.13569
3415,"C3415","Bajada de Piedras",,,-31.403631,-64.132237
3416,"C3416","Bajada de Piedras",,,-31.403185,-64.128055
3417,"C3417","Bajada de Piedras",,,-31.402259,-64.122503
3418,"C3418","Bajada de Piedras",,,-31.40184,-64.106063
3419,"C3419","Bajada de Piedras",,,-31.403399,-64.089592
3420,"C3420","Bajada de Piedras",,,-31.408596,-64.066812
3421,"C3421","Bajada de Piedras",,,-31.406289,-64.065557
3422,"C3422","Bajada de Piedras",,,-31.403053,-64.06387
3423,"C3423","Bajada de Piedras",,,-31.397417,-64.06062
3424,"C3424","Bajada de Piedras",,,-31.392812,-64.058637
3425,"C3425","Bajada de Piedras",,,-31.390673,-64.057985
3426,"C3426","Bajada de Piedras",,,-31.390673,-64.057985
3427,"C3427","Bajada de Piedras",,,-31.392812,-64.058637
3428,"C3428","Bajada de Piedras",,,-31.397417,-64.06062
3429,"C3429","Bajada de Piedras",,,-31.403053,-64.06387
3430,"C3430","Bajada de Piedras",,,-31.406289,-64.065557
3431,"C3431","Bajada de Piedras",,,-31.408596,-64.066812
3432,"C3432","Bajada de Piedras",,,-31.403399,-64.089592
3433,"C3433","Bajada de Piedras",,,-31.40184,-64.106063
3434,"C3434","Bajada de Piedras",,,-31.402259,-64.122503
3435,"C3435","Bajada de Piedras",,,-31.403185,-64.128055
3436,"C3436","Bajada de Piedras",,,-31.403631,-64.132237
3437,"C3437","Bajada de Piedras",,,-31.403364,-64.13569
3438,"C3438","Bajada de Piedras",,,-31.403185,-64.137989
3439,"C3439","Bajada de Piedras",,,-31.404098,-64.140543
3440,"C3440","Bajada de Piedras",,"Antes de Victor Manuel III",-31.405357,-64.142766
3441,"C3441","Bajada de Piedras",,"Cavero y Olivera",-31.406557,-64.147513
3450,"C3450","Capdevila",,"Circunvalacion y Al Gateado",-31.376255,-64.125827
3451,"C3451","Al Gateado",,"Capdevilla y De Las Cortaderas",-31.373688,-64.123945
3452,"C3452","De Las Cortaderas",,"Al Gateado y Las Toscas",-31.368953,-64.120915
3453,"C3453","De Las Cortaderas",,"Al Gateado y Las Toscas",-31.368799,-64.116772
3454,"C3454","Las Toscas",,"De Las Cortaderas y De La Pulperia",-31.366434,-64.11528
3455,"C3455","Las Toscas",,"De Las Cortaderas y De La Pulperia",-31.360742,-64.11526
3456,"C3456","De La Pulperia",,"Las Toscas y Las Quintas",-31.359514,-64.114573
3457,"C3457","De La Pulperia",,"Las Toscas y Las Quintas",-31.35945,-64.107893
3458,"C3458","Las Quintas",,"De la Pulperia y Santa Rosa",-31.355995,-64.105616
3459,"C3459","Santa Rosa",,,-31.353509,-64.100804
3460,"C3460","Santa Rosa",,,-31.349823,-64.095228
3461,"C3461","Santa Rosa",,,-31.344227,-64.086053
3462,"C3462","Santa Rosa",,,-31.339791,-64.082097
3463,"C3463","Santa Rosa",,,-31.336297,-64.078853
3464,"C3464","Santa Rosa",,,-31.338201,-64.072869
3465,"C3465","Santa Rosa",,,-31.333524,-64.070977
3466,"C3466","Santa Rosa",,,-31.333524,-64.070977
3467,"C3467","Santa Rosa",,,-31.338201,-64.072869
3468,"C3468","Santa Rosa",,,-31.336297,-64.078853
3469,"C3469","Santa Rosa",,,-31.339791,-64.082097
3470,"C3470","Santa Rosa",,,-31.344227,-64.086053
3471,"C3471","Santa Rosa",,,-31.349823,-64.095228
3472,"C3472","Santa Rosa",,,-31.353509,-64.100804
3473,"C3473","Las Quintas",,"De la Pulperia y Santa Rosa",-31.355995,-64.105616
3474,"C3474","De La Pulperia",,"Las Toscas y Las Quintas",-31.35945,-64.107893
3475,"C3475","De La Pulperia",,"Las Toscas y Las Quintas",-31.359514,-64.114573
3476,"C3476","Las Toscas",,"De Las Cortaderas y De La Pulperia",-31.360742,-64.11526
3477,"C3477","Las Toscas",,"De Las Cortaderas y De La Pulperia",-31.366434,-64.11528
3478,"C3478","De Las Cortaderas",,"Al Gateado y Las Toscas",-31.368799,-64.116772
3479,"C3479","De Las Cortaderas",,"Al Gateado y Las Toscas",-31.368953,-64.120915
3480,"C3480","Al Gateado",,"Capdevilla y De Las Cortaderas",-31.373688,-64.123945
3481,"C3481","Capdevila",,"Circunvalacion y Al Gateado",-31.376255,-64.125827
