stop_lat,stop_numero,stop_code,stop_calle,stop_entre,stop_lon,stop_esquina,stop_id,stop_desc,stop_name
-31.4227846814,660,,Velez Sarsfield,San Luis y Laprida,-64.1899750537,,6000,,Velez Sarsfield 660
-31.4110159667,1124,,Sarmiento,Pringles y David Luque,-64.1691593905,,6001,,Sarmiento 1124
-31.4049559455,650,,Av Roque Sáenz Peña,,-64.18283689,,6002,,Av Roque Sáenz Peña 650
-31.4287298975,1180,,Av. Veléz Sarsfield,,-64.1924969561,,6003,,Av. Veléz Sarsfield 1180
-31.4311605227,1410,,Av Vélez Sarsfield,,-64.1935185193,,6004,,Av Vélez Sarsfield 1410
-31.4077330792,545,,Av Patria,,-64.158519274,,6005,,Av Patria 545
-31.4090117814,1757,,Sarmiento,,-64.1616778589,,6006,,Sarmiento 1757
-31.4049258251,950,,Gral. Lavalleja,,-64.1875951752,,6007,,Gral. Lavalleja 950
-31.3946392583,1770,,Gral. Justo José de Urquiza,,-64.1866832338,,6008,,Gral. Justo José de Urquiza 1770
-31.4155776378,456,,Av Emilio Olmos,,-64.1771204266,,6009,,Av Emilio Olmos 456
-31.4152592021,862,,Av 24 de Septiembre,,-64.1712744521,,6010,,Av 24 de Septiembre 862
-31.4146171317,1064,,Av 24 de Septiembre,,-64.1688885444,,6011,,Av 24 de Septiembre 1064
-31.414007449,1236,,24 de Septiembre,,-64.1667152674,,6012,,24 de Septiembre 1236
-31.4254957261,880,,Av. Veléz Sarsfield,,-64.191119945,,6013,,Av. Veléz Sarsfield 880
-31.4319547079,3459,,Av Fuerza Aerea Argentina,,-64.2342313344,,6014,,Av Fuerza Aerea Argentina 3459
-31.4316474544,3041,,Av Fuerza Aerea Argentina,,-64.2295844605,,6015,,Av Fuerza Aerea Argentina 3041
-31.431418442,2831,,Av Fuerza Aerea Argentina,,-64.2263652208,,6016,,Av Fuerza Aerea Argentina 2831
-31.4311527848,2599,,Av Fuerza Aerea Argentina,,-64.2226322881,,6017,,Av Fuerza Aerea Argentina 2599
-31.4308863806,2245,,Av Fuerza Aerea Argentina,,-64.2189366646,,6018,,Av Fuerza Aerea Argentina 2245
-31.430613471,1865,,Av Fuerza Aerea Argentina,,-64.2152232454,,6019,,Av Fuerza Aerea Argentina 1865
-31.4298035386,1413,,Av Julio A. Roca,,-64.2105967549,,6020,,Av Julio A. Roca 1413
-31.4279725637,1051,,Av Julio A. Roca,,-64.2068815621,,6021,,Av Julio A. Roca 1051
-31.4286139691,861,,Av Julio A. Roca,,-64.2041075586,,6022,,Av Julio A. Roca 861
-31.4287607406,745,,Av Julio A. Roca,,-64.2022679664,,6023,,Av Julio A. Roca 745
-31.4287978562,567,,Av Julio A. Roca,,-64.1991201653,,6024,,Av Julio A. Roca 567
-31.4283133167,461,,Av Julio A. Roca,,-64.1971502919,,6025,,Av Julio A. Roca 461
-31.4251401783,867,,Gral. Manuel Belgrano,,-64.1924563223,,6026,,Gral. Manuel Belgrano 867
-31.4214966625,555,,Gral. Manuel Belgrano,,-64.1904689899,,6027,,Gral. Manuel Belgrano 555
-31.4168023585,177,,Gral. Manuel Belgrano,,-64.1888584235,,6028,,Gral. Manuel Belgrano 177
-31.4138650582,82,,Tucumán,,-64.1876058719,,6029,,Tucumán 82
-31.4127125275,259,,Av. Colón,,-64.1866564611,,6030,,Av. Colón 259
-31.4144299975,158,,Av Emilio Olmos,,-64.1808899016,,6031,,Av Emilio Olmos 158
-31.4153422073,830,,Av 24 De Septiembre,,-64.1715860507,,6032,,Av 24 De Septiembre 830
-31.4140396833,1226,,Av 24 De Septiembre,,-64.1668260459,,6033,,Av 24 De Septiembre 1226
-31.4143115467,111,,Gral. Juan José Viamonte,,-64.164572368,,6034,,Gral. Juan José Viamonte 111
-31.4158379507,1512,,Larrea,,-64.1626563646,,6035,,Larrea 1512
-31.4162470931,1726,,Larrea,,-64.1602586025,,6036,,Larrea 1726
-31.4178625293,1840,,Alejandro Carbó,,-64.1588499892,,6037,,Alejandro Carbó 1840
-31.4181864182,2060,,Obispo Maldonado,,-64.1568338663,,6038,,Obispo Maldonado 2060
-31.4218082805,1230,,Carlos Pellegrini,,-64.1567899431,,6039,,Carlos Pellegrini 1230
-31.422950754,2270,,San Jerónimo,,-64.1541049896,,6040,,San Jerónimo 2270
-31.4230861956,2494,,San Jerónimo,,-64.1520681875,,6041,,San Jerónimo 2494
-31.4233495709,2716,,San Jerónimo,,-64.149115972,,6042,,San Jerónimo 2716
-31.423658922,2964,,San Jerónimo,,-64.1462340799,,6043,,San Jerónimo 2964
-31.4239921603,3262,,San Jerónimo,,-64.1427093292,,6044,,San Jerónimo 3262
-31.4251845866,3337,,Entre Rios,,-64.1415999456,,6045,,Entre Rios 3337
-31.4012721131,3323,,Av Colón,,-64.2244474354,,6046,,Av Colón 3323
-31.4022395646,3069,,Av Colón,,-64.2213839473,,6047,,Av Colón 3069
-31.404527883,2470,,Av Colón,,-64.2141716816,,6048,,Av Colón 2470
-31.4052883829,2217,,Av Colón,,-64.2118259252,,6049,,Av Colón 2217
-31.4062831315,1933,,Av Colón,,-64.20859069,,6050,,Av Colón 1933
-31.4105427093,767,,Av Colón,,-64.1936877916,,6051,,Av Colón 767
-31.4115132197,543,,Av Colón,,-64.1905742606,,6052,,Av Colón 543
-31.4127647287,251,,Av Colón,,-64.1864749572,,6053,,Av Colón 251
-31.414291578,132,,Av Emilio Olmos,,-64.1813978454,,6054,,Av Emilio Olmos 132
-31.4155044848,438,,Av Emilio Olmos,,-64.1773544963,,6055,,Av Emilio Olmos 438
-31.4145878059,1072,,24 de Septiembre,,-64.1687896809,,6056,,24 de Septiembre 1072
-31.4132186952,1480,,24 de Septiembre,,-64.1637867545,,6057,,24 de Septiembre 1480
-31.4126294395,1668,,24 de Septiembre,,-64.1616338503,,6058,,24 de Septiembre 1668
-31.411956569,1874,,24 de Septiembre,,-64.1591631581,,6059,,24 de Septiembre 1874
-31.4104781898,282,,Av Patria,,-64.1573024942,,6060,,Av Patria 282
-31.4088569172,432,,Av Patria,,-64.1579174995,,6061,,Av Patria 432
-31.4063913561,696,,Av Patria,,-64.1588160068,,6062,,Av Patria 696
-31.4045424183,866,,Av Patria,,-64.1594990498,,6063,,Av Patria 866
-31.4019565164,1066,,Av Patria,,-64.1604500104,,6064,,Av Patria 1066
-31.399190792,1350,,Av Patria,,-64.161452293,,6065,,Av Patria 1350
-31.4319457613,1447,,Gral. Manuel Belgrano,,-64.1952427244,,6066,,Gral. Manuel Belgrano 1447
-31.4284333966,1176,,Gral. Manuel Belgrano,,-64.1938098461,,6067,,Gral. Manuel Belgrano 1176
-31.4236001732,769,,Gral. Manuel Belgrano,,-64.1918301306,,6068,,Gral. Manuel Belgrano 769
-31.4180607634,301,,Gral. Manuel Belgrano,,-64.1894103059,,6069,,Gral. Manuel Belgrano 301
-31.4142959161,50,,Tucumán,,-64.1877875275,,6070,,Tucumán 50
-31.4108318101,352,,Tucumán,,-64.1863323324,,6071,,Tucumán 352
-31.4071703374,411,,La Tablada,,-64.1869885175,,6072,,La Tablada 411
-31.4009644703,996,,Gral. Lavalleja,,-64.1864698336,,6073,,Gral. Lavalleja 996
-31.3980118648,646,,Bedoya,,-64.1861572057,,6074,,Bedoya 646
-31.3916333234,2035,,Gral. Justo José de Urquiza,,-64.185469616,,6075,,Gral. Justo José de Urquiza 2035
-31.3885493583,2310,,Gral. Justo José de Urquiza,,-64.1851128671,,6076,,Gral. Justo José de Urquiza 2310
-31.3846021339,2646,,Gral. Justo José de Urquiza,,-64.1851009981,,6077,,Gral. Justo José de Urquiza 2646
-31.3814335872,2934,,Gral. Justo José de Urquiza,,-64.1851193693,,6078,,Gral. Justo José de Urquiza 2934
-31.3660066816,4445,,Mariano Fragueiro,,-64.1837838725,,6079,,Mariano Fragueiro 4445
-31.379755325,3069,,Gral. Justo José de Urquiza,,-64.1851195681,,6080,,Gral. Justo José de Urquiza 3069
-31.3776286968,3248,,Mariano Fragueiro,,-64.1837661714,,6081,,Mariano Fragueiro 3248
-31.3746656291,3438,,Mariano Fragueiro,,-64.1837831614,,6082,,Mariano Fragueiro 3438
-31.372170442,3625,,Mariano Fragueiro,,-64.1837854598,,6083,,Mariano Fragueiro 3625
-31.3685476864,4000,,Mariano Fragueiro,,-64.1837858639,,6084,,Mariano Fragueiro 4000
-31.3639829906,720,,De Escola,,-64.1841385997,,6085,,De Escola 720
-31.364013417,880,,De Escola,,-64.1867022013,,6086,,De Escola 880
-31.3779326032,3217,,Mariano Fragueiro,,-64.1839433286,,6087,,Mariano Fragueiro 3217
-31.4238405204,3217,,San Jerónimo,,-64.1427770732,,6088,,San Jerónimo 3217
-31.423525791,2957,,San Jerónimo,,-64.1461156042,,6089,,San Jerónimo 2957
-31.4232565179,2721,,San Jerónimo,,-64.148946617,,6090,,San Jerónimo 2721
-31.4229729812,2479,,San Jerónimo,,-64.1521232147,,6091,,San Jerónimo 2479
-31.4227086615,2263,,San Jerónimo,,-64.1547396876,,6092,,San Jerónimo 2263
-31.4200187219,1047,,Bernardo de Irigoyen,,-64.1551215026,,6093,,Bernardo de Irigoyen 1047
-31.4181006922,2127,,Obispo Maldonado,,-64.1559391195,,6094,,Obispo Maldonado 2127
-31.4177167207,1811,,Obispo Maldonado,,-64.1587427623,,6095,,Obispo Maldonado 1811
-31.4161121825,1713,,Larrea,,-64.1599798743,,6096,,Larrea 1713
-31.4156834805,1531,,Larrea,,-64.1624923136,,6097,,Larrea 1531
-31.4133112118,182,,Roma,,-64.1633728872,,6098,,Roma 182
-31.4111240575,386,,Roma,,-64.1641672256,,6099,,Roma 386
-31.4104059529,1329,,Sarmiento,,-64.166884893,,6100,,Sarmiento 1329
-31.4108923835,1175,,Sarmiento,,-64.1687134666,,6101,,Sarmiento 1175
-31.4120957054,829,,Sarmiento,,-64.1728868079,,6102,,Sarmiento 829
-31.4139380682,347,,Bv. Guzmán,,-64.1755559528,,6103,,Bv. Guzmán 347
-31.4139494205,379,,Lima,,-64.1775913725,,6104,,Lima 379
-31.4125915606,15,,Lima,,-64.1822810453,,6105,,Lima 15
-31.4133110078,169,,Gral. Paz,,-64.1860095197,,6106,,Gral. Paz 169
-31.4195103342,372,,Av. Veléz Sarsfield,,-64.1886052142,,6107,,Av. Veléz Sarsfield 372
-31.424202473,832,,Av Marcelo T.de Alvear,,-64.193843525,,6108,,Av Marcelo T.de Alvear 832
-31.4265394801,1080,,Av Marcelo T.de Alvear,,-64.1947957117,,6109,,Av Marcelo T.de Alvear 1080
-31.4282298351,480,,Av Julio A. Roca,,-64.1977354482,,6110,,Av Julio A. Roca 480
-31.4285243396,780,,Av Julio A. Roca,,-64.2025951849,,6111,,Av Julio A. Roca 780
-31.4278004171,1034,,Av Julio A. Roca,,-64.2066185611,,6112,,Av Julio A. Roca 1034
-31.4285683813,1318,,Av Julio A. Roca,,-64.2097223843,,6113,,Av Julio A. Roca 1318
-31.4286677995,1330,,Av Julio A. Roca,,-64.2098773173,,6114,,Av Julio A. Roca 1330
-31.4301215063,1710,,Av Fuerza Aerea Argentina,,-64.2131170059,,6115,,Av Fuerza Aerea Argentina 1710
-31.4303404484,1864,,Av Fuerza Aerea Argentina,,-64.2151301947,,6116,,Av Fuerza Aerea Argentina 1864
-31.4306220737,2300,,Av Fuerza Aerea Argentina,,-64.2192604711,,6117,,Av Fuerza Aerea Argentina 2300
-31.4309656753,2668,,Av Fuerza Aerea Argentina,,-64.2240520769,,6118,,Av Fuerza Aerea Argentina 2668
-31.431251968,2966,,Av Fuerza Aerea Argentina,,-64.2284019129,,6119,,Av Fuerza Aerea Argentina 2966
-31.4316097047,3370,,Av Fuerza Aerea Argentina,,-64.2333977318,,6120,,Av Fuerza Aerea Argentina 3370
-31.4319786873,3684,,Av Fuerza Aerea Argentina,,-64.2366597971,,6121,,Av Fuerza Aerea Argentina 3684
-31.3647455309,880,,De los Santos,,-64.1851306215,,6122,,De los Santos 880
-31.3647539308,807,,De los Santos,,-64.1867963045,,6123,,De los Santos 807
-31.3661663813,4425,,Mariano Fragueiro,,-64.18396314,,6124,,Mariano Fragueiro 4425
-31.3684219998,4067,,Mariano Fragueiro,,-64.1839653321,,6125,,Mariano Fragueiro 4067
-31.3716945657,3636,,Mariano Fragueiro,,-64.1839649306,,6126,,Mariano Fragueiro 3636
-31.3741104678,3489,,Mariano Fragueiro,,-64.1839612322,,6127,,Mariano Fragueiro 3489
-31.3791767112,3069,,Gral. Justo José de Urquiza,,-64.1853107287,,6128,,Gral. Justo José de Urquiza 3069
-31.382556757,2835,,Gral. Justo José de Urquiza,,-64.1853031305,,6129,,Gral. Justo José de Urquiza 2835
-31.3849749661,2623,,Gral. Justo José de Urquiza,,-64.1852906019,,6130,,Gral. Justo José de Urquiza 2623
-31.3882676134,2331,,Gral. Justo José de Urquiza,,-64.1852871278,,6131,,Gral. Justo José de Urquiza 2331
-31.3917777766,2025,,Gral. Justo José de Urquiza,,-64.185718284,,6132,,Gral. Justo José de Urquiza 2025
-31.3951123021,1707,,Gral. Justo José de Urquiza,,-64.1870905701,,6133,,Gral. Justo José de Urquiza 1707
-31.3989910947,700,,Juan del Campillo,,-64.1876490641,,6134,,Juan del Campillo 700
-31.4001961907,417,,Juan del Campillo,,-64.183687942,,6135,,Juan del Campillo 417
-31.40243719,1265,,Roque Sáenz Peña,,-64.183224704,,6136,,Roque Sáenz Peña 1265
-31.4074659261,645,,Gral. Paz,,-64.183559699,,6137,,Gral. Paz 645
-31.4102268999,437,,Gral. Paz,,-64.1847198419,,6138,,Gral. Paz 437
-31.4136573057,173,,Gral. Paz,,-64.1861387638,,6139,,Gral. Paz 173
-31.4154042869,10,,Av Veléz Sarsfield,,-64.1868683713,,6140,,Av Veléz Sarsfield 10
-31.399441608,1319,,Av Patria,,-64.161553807,,6141,,Av Patria 1319
-31.4011770776,1139,,Av Patria,,-64.1609261307,,6142,,Av Patria 1139
-31.4037498076,939,,Av Patria,,-64.1599774141,,6143,,Av Patria 939
-31.4056370195,765,,Av Patria,,-64.1592931502,,6144,,Av Patria 765
-31.4097205609,1537,,Sarmiento,,-64.1643125362,,6145,,Sarmiento 1537
-31.4102154941,1385,,Sarmiento,,-64.1661803685,,6146,,Sarmiento 1385
-31.414075804,333,,Bv. Guzmán,,-64.1756161012,,6147,,Bv. Guzmán 333
-31.4138448134,347,,Lima,,-64.1779527971,,6148,,Lima 347
-31.4123564949,45,,Lima,,-64.1830945609,,6149,,Lima 45
-31.4114996206,248,,Santa Rosa,,-64.1860136721,,6150,,Santa Rosa 248
-31.410248568,534,,Santa Rosa,,-64.1900319318,,6151,,Santa Rosa 534
-31.4092743582,798,,Santa Rosa,,-64.1932759885,,6152,,Santa Rosa 798
-31.4094718458,251,,Nicolás Avellaneda,,-64.1951552024,,6153,,Nicolás Avellaneda 251
-31.4088968865,1140,,Avenida Colón,,-64.1986011459,,6154,,Avenida Colón 1140
-31.4075997079,1476,,Avenida Colón,,-64.2030480159,,6155,,Avenida Colón 1476
-31.4061998151,1870,,Avenida Colón,,-64.2079385482,,6156,,Avenida Colón 1870
-31.4052981215,2144,,Avenida Colon,,-64.2108600688,,6157,,Avenida Colon 2144
-31.4041175406,2486,,Avenida Colón,,-64.2145547881,,6158,,Avenida Colón 2486
-31.4031626141,2742,,Avenida Colón,,-64.217608908,,6159,,Avenida Colón 2742
-31.4020795905,3044,,Avenida Colón,,-64.22103494,,6160,,Avenida Colón 3044
-31.4013104452,3268,,Avenida Colón,,-64.2234592741,,6161,,Avenida Colón 3268
-31.400473798,243,,Domingo Zipoli,,-64.2251297158,,6162,,Domingo Zipoli 243
-31.4034957364,2708,,Av Colón,,-64.2174440977,,6163,,Av Colón 2708
-31.4071834249,1649,,Av Colón,,-64.2054859182,,6164,,Av Colón 1649
-31.4082452654,1369,,Av Colón,,-64.2016408772,,6165,,Av Colón 1369
-31.4095586991,1041,,Av Colón,,-64.197221593,,6166,,Av Colón 1041
